{
"type": "FeatureCollection",
"name": "schoolPointsSample",
"crs": { "type": "name", "properties": { "name": "urn:ogc:def:crs:OGC:1.3:CRS84" } },
"features": [
{ "type": "Feature", "properties": { "School_yea": "SY13-14", "School_nam": "Washington Latin PCS - Middle School", "School_sec": "Public charter", "School_gra": "5-8", "Facility_a": "5200 2nd Street NW", "MAR_latitu": 38.95388895, "MAR_longit": -77.01381902, "Ward__2022": "Ward 4", "DCPS_bound": "Roosevelt", "Grade_rang": "5", "Enrollment": 91.0, "Permanent_": null }, "geometry": { "type": "Point", "coordinates": [ -77.013819, 38.953889 ] } },
{ "type": "Feature", "properties": { "School_yea": "SY13-14", "School_nam": "Seaton Elementary School", "School_sec": "DCPS", "School_gra": "PK3-5", "Facility_a": "1503 10th Street NW", "MAR_latitu": 38.9106187, "MAR_longit": -77.02488247, "Ward__2022": "Ward 2", "DCPS_bound": "Cardozo", "Grade_rang": "PK3-5", "Enrollment": 253.0, "Permanent_": null }, "geometry": { "type": "Point", "coordinates": [ -77.024882, 38.910619 ] } },
{ "type": "Feature", "properties": { "School_yea": "SY13-14", "School_nam": "West Education Campus", "School_sec": "DCPS", "School_gra": "PK3-8", "Facility_a": "1338 Farragut Street NW", "MAR_latitu": 38.95136741, "MAR_longit": -77.03225306, "Ward__2022": "Ward 4", "DCPS_bound": "Roosevelt", "Grade_rang": "PK3-5", "Enrollment": 193.0, "Permanent_": null }, "geometry": { "type": "Point", "coordinates": [ -77.032253, 38.951367 ] } },
{ "type": "Feature", "properties": { "School_yea": "SY13-14", "School_nam": "Orr Elementary School", "School_sec": "DCPS", "School_gra": "PK3-5", "Facility_a": "2200 Minnesota Avenue SE", "MAR_latitu": 38.87179716, "MAR_longit": -76.97448402000001, "Ward__2022": "Ward 8", "DCPS_bound": "Anacostia", "Grade_rang": "PK3-5", "Enrollment": 355.0, "Permanent_": null }, "geometry": { "type": "Point", "coordinates": [ -76.974484, 38.871797 ] } },
{ "type": "Feature", "properties": { "School_yea": "SY13-14", "School_nam": "DC Prep PCS - Benning Elementary School", "School_sec": "Public charter", "School_gra": "PK3-3", "Facility_a": "100 41st Street NE", "MAR_latitu": 38.8910218, "MAR_longit": -76.94482148, "Ward__2022": "Ward 7", "DCPS_bound": "Woodson", "Grade_rang": "PK3-3", "Enrollment": 429.0, "Permanent_": null }, "geometry": { "type": "Point", "coordinates": [ -76.944821, 38.891022 ] } },
{ "type": "Feature", "properties": { "School_yea": "SY13-14", "School_nam": "DC Prep PCS - Benning Middle School", "School_sec": "Public charter", "School_gra": "4", "Facility_a": "100 41st Street NE", "MAR_latitu": 38.8910218, "MAR_longit": -76.94482148, "Ward__2022": "Ward 7", "DCPS_bound": "Woodson", "Grade_rang": "4", "Enrollment": 77.0, "Permanent_": null }, "geometry": { "type": "Point", "coordinates": [ -76.944821, 38.891022 ] } },
{ "type": "Feature", "properties": { "School_yea": "SY13-14", "School_nam": "DC Scholars PCS", "School_sec": "Public charter", "School_gra": "PK3-4", "Facility_a": "5601 EAST CAPITOL STREET SE", "MAR_latitu": 38.88947954, "MAR_longit": -76.92174283, "Ward__2022": "Ward 7", "DCPS_bound": "Woodson", "Grade_rang": "PK3-4", "Enrollment": 299.0, "Permanent_": null }, "geometry": { "type": "Point", "coordinates": [ -76.921743, 38.88948 ] } },
{ "type": "Feature", "properties": { "School_yea": "SY13-14", "School_nam": "Walker-Jones Education Campus", "School_sec": "DCPS", "School_gra": "PK3-8", "Facility_a": "1125 New Jersey Avenue NW", "MAR_latitu": 38.90419198, "MAR_longit": -77.01391569, "Ward__2022": "Ward 6", "DCPS_bound": "Dunbar", "Grade_rang": "PK3-5", "Enrollment": 329.0, "Permanent_": null }, "geometry": { "type": "Point", "coordinates": [ -77.013916, 38.904192 ] } },
{ "type": "Feature", "properties": { "School_yea": "SY13-14", "School_nam": "Plummer Elementary School", "School_sec": "DCPS", "School_gra": "PK3-5", "Facility_a": "4601 Texas Avenue SE", "MAR_latitu": 38.8872402, "MAR_longit": -76.93993468, "Ward__2022": "Ward 7", "DCPS_bound": "Anacostia", "Grade_rang": "PK3-5", "Enrollment": 416.0, "Permanent_": null }, "geometry": { "type": "Point", "coordinates": [ -76.939935, 38.88724 ] } },
{ "type": "Feature", "properties": { "School_yea": "SY13-14", "School_nam": "Langley Elementary School", "School_sec": "DCPS", "School_gra": "PK3-5", "Facility_a": "101 T Street NE", "MAR_latitu": 38.91516879, "MAR_longit": -77.00588662, "Ward__2022": "Ward 5", "DCPS_bound": "Dunbar", "Grade_rang": "PK3-5", "Enrollment": 280.0, "Permanent_": null }, "geometry": { "type": "Point", "coordinates": [ -77.005887, 38.915169 ] } },
{ "type": "Feature", "properties": { "School_yea": "SY13-14", "School_nam": "Houston Elementary School", "School_sec": "DCPS", "School_gra": "PK3-5", "Facility_a": "1100 50th Place NE", "MAR_latitu": 38.90541532, "MAR_longit": -76.92994765, "Ward__2022": "Ward 7", "DCPS_bound": "Woodson", "Grade_rang": "PK3-5", "Enrollment": 274.0, "Permanent_": null }, "geometry": { "type": "Point", "coordinates": [ -76.929948, 38.905415 ] } },
{ "type": "Feature", "properties": { "School_yea": "SY13-14", "School_nam": "Thomson Elementary School", "School_sec": "DCPS", "School_gra": "PK3-5", "Facility_a": "1200 L Street NW", "MAR_latitu": 38.90349634, "MAR_longit": -77.02843003, "Ward__2022": "Ward 2", "DCPS_bound": "Cardozo", "Grade_rang": "PK3-5", "Enrollment": 289.0, "Permanent_": null }, "geometry": { "type": "Point", "coordinates": [ -77.02843, 38.903496 ] } },
{ "type": "Feature", "properties": { "School_yea": "SY13-14", "School_nam": "Garrison Elementary School", "School_sec": "DCPS", "School_gra": "PK3-5", "Facility_a": "1200 S Street NW", "MAR_latitu": 38.91390129, "MAR_longit": -77.02861256, "Ward__2022": "Ward 2", "DCPS_bound": "Cardozo", "Grade_rang": "PK3-5", "Enrollment": 280.0, "Permanent_": null }, "geometry": { "type": "Point", "coordinates": [ -77.028613, 38.913901 ] } },
{ "type": "Feature", "properties": { "School_yea": "SY13-14", "School_nam": "Maury Elementary School", "School_sec": "DCPS", "School_gra": "PK3-5", "Facility_a": "1250 Constitution Avenue NE", "MAR_latitu": 38.89218519, "MAR_longit": -76.9886575, "Ward__2022": "Ward 6", "DCPS_bound": "Eastern", "Grade_rang": "PK3-5", "Enrollment": 339.0, "Permanent_": null }, "geometry": { "type": "Point", "coordinates": [ -76.988657, 38.892185 ] } },
{ "type": "Feature", "properties": { "School_yea": "SY13-14", "School_nam": "Wheatley Education Campus", "School_sec": "DCPS", "School_gra": "PK3-8", "Facility_a": "1299 Neal Street NE", "MAR_latitu": 38.90411774, "MAR_longit": -76.98850077, "Ward__2022": "Ward 5", "DCPS_bound": "Dunbar", "Grade_rang": "PK3-5", "Enrollment": 313.0, "Permanent_": null }, "geometry": { "type": "Point", "coordinates": [ -76.988501, 38.904118 ] } },
{ "type": "Feature", "properties": { "School_yea": "SY13-14", "School_nam": "Brightwood Education Campus", "School_sec": "DCPS", "School_gra": "PK3-8", "Facility_a": "1300 Nicholson Street NW", "MAR_latitu": 38.96053573, "MAR_longit": -77.03068885, "Ward__2022": "Ward 4", "DCPS_bound": "Coolidge", "Grade_rang": "PK3-5", "Enrollment": 468.0, "Permanent_": null }, "geometry": { "type": "Point", "coordinates": [ -77.030689, 38.960536 ] } },
{ "type": "Feature", "properties": { "School_yea": "SY13-14", "School_nam": "Meridian PCS", "School_sec": "Public charter", "School_gra": "PK3-8", "Facility_a": "2120 13th Street NW", "MAR_latitu": 38.91874942, "MAR_longit": -77.02995351, "Ward__2022": "Ward 1", "DCPS_bound": "Cardozo", "Grade_rang": "PK3-5", "Enrollment": 480.0, "Permanent_": null }, "geometry": { "type": "Point", "coordinates": [ -77.029954, 38.918749 ] } },
{ "type": "Feature", "properties": { "School_yea": "SY13-14", "School_nam": "Powell Elementary School", "School_sec": "DCPS", "School_gra": "PK3-5", "Facility_a": "1350 Upshur Street NW", "MAR_latitu": 38.94162369, "MAR_longit": -77.03139783, "Ward__2022": "Ward 4", "DCPS_bound": "Roosevelt", "Grade_rang": "PK3-5", "Enrollment": 406.0, "Permanent_": null }, "geometry": { "type": "Point", "coordinates": [ -77.031398, 38.941624 ] } },
{ "type": "Feature", "properties": { "School_yea": "SY13-14", "School_nam": "KIPP DC PCS Connect Academy", "School_sec": "Public charter", "School_gra": "PK3-PK4", "Facility_a": "1375 Mount Olivet Road NE", "MAR_latitu": 38.90807397, "MAR_longit": -76.98113601, "Ward__2022": "Ward 5", "DCPS_bound": "Dunbar", "Grade_rang": "PK3-PK4", "Enrollment": 203.0, "Permanent_": null }, "geometry": { "type": "Point", "coordinates": [ -76.981136, 38.908074 ] } },
{ "type": "Feature", "properties": { "School_yea": "SY13-14", "School_nam": "KIPP DC PCS Spring Academy", "School_sec": "Public charter", "School_gra": "K", "Facility_a": "1375 Mount Olivet Road NE", "MAR_latitu": 38.90807397, "MAR_longit": -76.98113601, "Ward__2022": "Ward 5", "DCPS_bound": "Dunbar", "Grade_rang": "K", "Enrollment": 101.0, "Permanent_": null }, "geometry": { "type": "Point", "coordinates": [ -76.981136, 38.908074 ] } },
{ "type": "Feature", "properties": { "School_yea": "SY13-14", "School_nam": "Shepherd Elementary School", "School_sec": "DCPS", "School_gra": "PK4-5", "Facility_a": "7800 14th Street NW", "MAR_latitu": 38.98460328, "MAR_longit": -77.03399523, "Ward__2022": "Ward 4", "DCPS_bound": "Jackson-Reed", "Grade_rang": "PK4-5", "Enrollment": 304.0, "Permanent_": null }, "geometry": { "type": "Point", "coordinates": [ -77.033995, 38.984603 ] } },
{ "type": "Feature", "properties": { "School_yea": "SY13-14", "School_nam": "Mary McLeod Bethune PCS [Slowe]", "School_sec": "Public charter", "School_gra": "PK3-8", "Facility_a": "1404 Jackson Street NE", "MAR_latitu": 38.92960592, "MAR_longit": -76.98686463, "Ward__2022": "Ward 5", "DCPS_bound": "Dunbar", "Grade_rang": "PK3-5", "Enrollment": 307.0, "Permanent_": null }, "geometry": { "type": "Point", "coordinates": [ -76.986865, 38.929606 ] } },
{ "type": "Feature", "properties": { "School_yea": "SY13-14", "School_nam": "Brookland Education Campus at Bunker Hill", "School_sec": "DCPS", "School_gra": "PK3-8", "Facility_a": "1401 Michigan Avenue NE", "MAR_latitu": 38.94201247, "MAR_longit": -76.98499564, "Ward__2022": "Ward 5", "DCPS_bound": "Dunbar", "Grade_rang": "PK3-5", "Enrollment": 172.0, "Permanent_": null }, "geometry": { "type": "Point", "coordinates": [ -76.984996, 38.942012 ] } },
{ "type": "Feature", "properties": { "School_yea": "SY13-14", "School_nam": "Achievement Preparatory PCS - Elementary", "School_sec": "Public charter", "School_gra": "K-3", "Facility_a": "1500 Mississippi Avenue SE", "MAR_latitu": 38.8416454, "MAR_longit": -76.98339857000001, "Ward__2022": "Ward 8", "DCPS_bound": "Ballou", "Grade_rang": "K-3", "Enrollment": 233.0, "Permanent_": null }, "geometry": { "type": "Point", "coordinates": [ -76.983399, 38.841645 ] } },
{ "type": "Feature", "properties": { "School_yea": "SY13-14", "School_nam": "Malcolm X Elementary School @ Green", "School_sec": "DCPS", "School_gra": "PK3-5", "Facility_a": "1500 Mississippi Avenue SE", "MAR_latitu": 38.8416454, "MAR_longit": -76.98339857000001, "Ward__2022": "Ward 8", "DCPS_bound": "Ballou", "Grade_rang": "PK3-5", "Enrollment": 225.0, "Permanent_": null }, "geometry": { "type": "Point", "coordinates": [ -76.983399, 38.841645 ] } },
{ "type": "Feature", "properties": { "School_yea": "SY13-14", "School_nam": "Moten Elementary School", "School_sec": "DCPS", "School_gra": "PK3-5", "Facility_a": "1565 Morris Road SE", "MAR_latitu": 38.856656, "MAR_longit": -76.98294368000001, "Ward__2022": "Ward 8", "DCPS_bound": "Anacostia", "Grade_rang": "PK3-5", "Enrollment": 362.0, "Permanent_": null }, "geometry": { "type": "Point", "coordinates": [ -76.982944, 38.856656 ] } },
{ "type": "Feature", "properties": { "School_yea": "SY13-14", "School_nam": "Ross Elementary School", "School_sec": "DCPS", "School_gra": "PK3-5", "Facility_a": "1730 R Street NW", "MAR_latitu": 38.91239115, "MAR_longit": -77.03966214, "Ward__2022": "Ward 2", "DCPS_bound": "Cardozo", "Grade_rang": "PK3-5", "Enrollment": 161.0, "Permanent_": null }, "geometry": { "type": "Point", "coordinates": [ -77.039662, 38.912391 ] } },
{ "type": "Feature", "properties": { "School_yea": "SY13-14", "School_nam": "Bancroft Elementary School", "School_sec": "DCPS", "School_gra": "PK3-5", "Facility_a": "1755 Newton Street NW", "MAR_latitu": 38.93431836, "MAR_longit": -77.04055344, "Ward__2022": "Ward 1", "DCPS_bound": "Jackson-Reed", "Grade_rang": "PK3-5", "Enrollment": 490.0, "Permanent_": null }, "geometry": { "type": "Point", "coordinates": [ -77.040553, 38.934318 ] } },
{ "type": "Feature", "properties": { "School_yea": "SY13-14", "School_nam": "Briya PCS", "School_sec": "Public charter", "School_gra": "PK3-PK4; Adult", "Facility_a": "1755 Newton Street NW", "MAR_latitu": 38.93431836, "MAR_longit": -77.04055344, "Ward__2022": "Ward 1", "DCPS_bound": "Jackson-Reed", "Grade_rang": "PK3-PK4", "Enrollment": 22.0, "Permanent_": null }, "geometry": { "type": "Point", "coordinates": [ -77.040553, 38.934318 ] } },
{ "type": "Feature", "properties": { "School_yea": "SY13-14", "School_nam": "Burroughs Education Campus", "School_sec": "DCPS", "School_gra": "PK3-8", "Facility_a": "1820 Monroe Street NE", "MAR_latitu": 38.93350266, "MAR_longit": -76.97845637, "Ward__2022": "Ward 5", "DCPS_bound": "Dunbar", "Grade_rang": "PK3-5", "Enrollment": 214.0, "Permanent_": null }, "geometry": { "type": "Point", "coordinates": [ -76.978456, 38.933503 ] } },
{ "type": "Feature", "properties": { "School_yea": "SY13-14", "School_nam": "Cleveland Elementary School", "School_sec": "DCPS", "School_gra": "PK3-5", "Facility_a": "1825 8th Street NW", "MAR_latitu": 38.91514529, "MAR_longit": -77.02270718, "Ward__2022": "Ward 1", "DCPS_bound": "Cardozo", "Grade_rang": "PK3-5", "Enrollment": 303.0, "Permanent_": null }, "geometry": { "type": "Point", "coordinates": [ -77.022707, 38.915145 ] } },
{ "type": "Feature", "properties": { "School_yea": "SY13-14", "School_nam": "Ketcham Elementary School", "School_sec": "DCPS", "School_gra": "PK3-5", "Facility_a": "1919 15th Street SE", "MAR_latitu": 38.86604269, "MAR_longit": -76.98362116, "Ward__2022": "Ward 8", "DCPS_bound": "Anacostia", "Grade_rang": "PK3-5", "Enrollment": 306.0, "Permanent_": null }, "geometry": { "type": "Point", "coordinates": [ -76.983621, 38.866043 ] } },
{ "type": "Feature", "properties": { "School_yea": "SY13-14", "School_nam": "Oyster Adams Bilingual School (Adams)", "School_sec": "DCPS", "School_gra": "PK3-8", "Facility_a": "2020 19th Street NW", "MAR_latitu": 38.91730954, "MAR_longit": -77.04437725, "Ward__2022": "Ward 1", "DCPS_bound": "Jackson-Reed", "Grade_rang": "4-5", "Enrollment": 143.0, "Permanent_": null }, "geometry": { "type": "Point", "coordinates": [ -77.044377, 38.91731 ] } },
{ "type": "Feature", "properties": { "School_yea": "SY13-14", "School_nam": "Nalle Elementary School", "School_sec": "DCPS", "School_gra": "PK3-5", "Facility_a": "219 50th Street SE", "MAR_latitu": 38.88595442, "MAR_longit": -76.93079651, "Ward__2022": "Ward 7", "DCPS_bound": "Woodson", "Grade_rang": "PK3-5", "Enrollment": 369.0, "Permanent_": null }, "geometry": { "type": "Point", "coordinates": [ -76.930797, 38.885954 ] } },
{ "type": "Feature", "properties": { "School_yea": "SY13-14", "School_nam": "Marie Reed Elementary School", "School_sec": "DCPS", "School_gra": "PK3-5", "Facility_a": "2201 18th Street NW", "MAR_latitu": 38.91911214, "MAR_longit": -77.04082224, "Ward__2022": "Ward 1", "DCPS_bound": "Cardozo", "Grade_rang": "PK3-5", "Enrollment": 377.0, "Permanent_": null }, "geometry": { "type": "Point", "coordinates": [ -77.040822, 38.919112 ] } },
{ "type": "Feature", "properties": { "School_yea": "SY13-14", "School_nam": "Savoy Elementary School", "School_sec": "DCPS", "School_gra": "PK3-5", "Facility_a": "2400 Shannon Place SE", "MAR_latitu": 38.86285199, "MAR_longit": -76.99360426, "Ward__2022": "Ward 8", "DCPS_bound": "Anacostia", "Grade_rang": "PK3-5", "Enrollment": 408.0, "Permanent_": null }, "geometry": { "type": "Point", "coordinates": [ -76.993604, 38.862852 ] } },
{ "type": "Feature", "properties": { "School_yea": "SY13-14", "School_nam": "School Without Walls @ Francis-Stevens", "School_sec": "DCPS", "School_gra": "PK3-8", "Facility_a": "2425 N Street NW", "MAR_latitu": 38.9074695, "MAR_longit": -77.052321, "Ward__2022": "Ward 2", "DCPS_bound": "Cardozo", "Grade_rang": "PK3-5", "Enrollment": 182.0, "Permanent_": null }, "geometry": { "type": "Point", "coordinates": [ -77.052321, 38.90747 ] } },
{ "type": "Feature", "properties": { "School_yea": "SY13-14", "School_nam": "Garfield Elementary School", "School_sec": "DCPS", "School_gra": "PK3-5", "Facility_a": "2435 Alabama Avenue SE", "MAR_latitu": 38.85173338, "MAR_longit": -76.97080478, "Ward__2022": "Ward 8", "DCPS_bound": "Ballou", "Grade_rang": "PK3-5", "Enrollment": 266.0, "Permanent_": null }, "geometry": { "type": "Point", "coordinates": [ -76.970805, 38.851733 ] } },
{ "type": "Feature", "properties": { "School_yea": "SY13-14", "School_nam": "Browne Education Campus", "School_sec": "DCPS", "School_gra": "PK3-8", "Facility_a": "850 26th Street NE", "MAR_latitu": 38.90259888, "MAR_longit": -76.97066706, "Ward__2022": "Ward 5", "DCPS_bound": "Eastern", "Grade_rang": "PK3-5", "Enrollment": 252.0, "Permanent_": null }, "geometry": { "type": "Point", "coordinates": [ -76.970667, 38.902599 ] } },
{ "type": "Feature", "properties": { "School_yea": "SY13-14", "School_nam": "H D Cooke Elementary School", "School_sec": "DCPS", "School_gra": "PK3-5", "Facility_a": "2525 17th Street NW", "MAR_latitu": 38.92394309, "MAR_longit": -77.03881058, "Ward__2022": "Ward 1", "DCPS_bound": "Cardozo", "Grade_rang": "PK3-5", "Enrollment": 396.0, "Permanent_": null }, "geometry": { "type": "Point", "coordinates": [ -77.038811, 38.923943 ] } },
{ "type": "Feature", "properties": { "School_yea": "SY13-14", "School_nam": "KIPP DC PCS Discover Academy", "School_sec": "Public charter", "School_gra": "PK3-K", "Facility_a": "2600 Douglass Road SE", "MAR_latitu": 38.85736141, "MAR_longit": -76.98757335000001, "Ward__2022": "Ward 8", "DCPS_bound": "Anacostia", "Grade_rang": "PK3-K", "Enrollment": 306.0, "Permanent_": null }, "geometry": { "type": "Point", "coordinates": [ -76.987573, 38.857361 ] } },
{ "type": "Feature", "properties": { "School_yea": "SY13-14", "School_nam": "KIPP DC PCS Heights Academy", "School_sec": "Public charter", "School_gra": "1-3", "Facility_a": "2600 Douglass Road SE", "MAR_latitu": 38.85736141, "MAR_longit": -76.98757335000001, "Ward__2022": "Ward 8", "DCPS_bound": "Anacostia", "Grade_rang": "1-3", "Enrollment": 314.0, "Permanent_": null }, "geometry": { "type": "Point", "coordinates": [ -76.987573, 38.857361 ] } },
{ "type": "Feature", "properties": { "School_yea": "SY13-14", "School_nam": "KIPP DC PCS AIM Academy", "School_sec": "Public charter", "School_gra": "5-8", "Facility_a": "2600 Douglass Road SE", "MAR_latitu": 38.85736141, "MAR_longit": -76.98757335000001, "Ward__2022": "Ward 8", "DCPS_bound": "Anacostia", "Grade_rang": "5", "Enrollment": 88.0, "Permanent_": null }, "geometry": { "type": "Point", "coordinates": [ -76.987573, 38.857361 ] } },
{ "type": "Feature", "properties": { "School_yea": "SY13-14", "School_nam": "Stanton Elementary School", "School_sec": "DCPS", "School_gra": "PK3-5", "Facility_a": "2701 Naylor Road SE", "MAR_latitu": 38.85927211, "MAR_longit": -76.96849023, "Ward__2022": "Ward 8", "DCPS_bound": "Anacostia", "Grade_rang": "PK3-5", "Enrollment": 585.0, "Permanent_": null }, "geometry": { "type": "Point", "coordinates": [ -76.96849, 38.859272 ] } },
{ "type": "Feature", "properties": { "School_yea": "SY13-14", "School_nam": "Noyes Education Campus", "School_sec": "DCPS", "School_gra": "PK3-8", "Facility_a": "2725 10th Street NE", "MAR_latitu": 38.92517798, "MAR_longit": -76.99184288, "Ward__2022": "Ward 5", "DCPS_bound": "Dunbar", "Grade_rang": "PK3-5", "Enrollment": 228.0, "Permanent_": null }, "geometry": { "type": "Point", "coordinates": [ -76.991843, 38.925178 ] } },
{ "type": "Feature", "properties": { "School_yea": "SY13-14", "School_nam": "Oyster Adams Bilingual School (Oyster)", "School_sec": "DCPS", "School_gra": "PK3-8", "Facility_a": "2801 Calvert Street NW", "MAR_latitu": 38.92359583, "MAR_longit": -77.05720337, "Ward__2022": "Ward 3", "DCPS_bound": "Jackson-Reed", "Grade_rang": "PK3-3", "Enrollment": 336.0, "Permanent_": null }, "geometry": { "type": "Point", "coordinates": [ -77.057203, 38.923596 ] } },
{ "type": "Feature", "properties": { "School_yea": "SY13-14", "School_nam": "C W Harris Elementary School", "School_sec": "DCPS", "School_gra": "PK3-5", "Facility_a": "301 53rd Street SE", "MAR_latitu": 38.88359883, "MAR_longit": -76.9261155, "Ward__2022": "Ward 7", "DCPS_bound": "Woodson", "Grade_rang": "PK3-5", "Enrollment": 269.0, "Permanent_": null }, "geometry": { "type": "Point", "coordinates": [ -76.926115, 38.883599 ] } },
{ "type": "Feature", "properties": { "School_yea": "SY13-14", "School_nam": "Capitol Hill Montessori School @ Logan", "School_sec": "DCPS", "School_gra": "PK3-6", "Facility_a": "215 G Street NE", "MAR_latitu": 38.89853031, "MAR_longit": -77.00256647, "Ward__2022": "Ward 6", "DCPS_bound": "Eastern", "Grade_rang": "PK3-5", "Enrollment": 281.0, "Permanent_": null }, "geometry": { "type": "Point", "coordinates": [ -77.002566, 38.89853 ] } },
{ "type": "Feature", "properties": { "School_yea": "SY13-14", "School_nam": "School Within School @ Logan Annex", "School_sec": "DCPS", "School_gra": "PK3-2", "Facility_a": "215 G Street NE", "MAR_latitu": 38.89853031, "MAR_longit": -77.00256647, "Ward__2022": "Ward 6", "DCPS_bound": "Eastern", "Grade_rang": "PK3-2", "Enrollment": 205.0, "Permanent_": null }, "geometry": { "type": "Point", "coordinates": [ -77.002566, 38.89853 ] } },
{ "type": "Feature", "properties": { "School_yea": "SY13-14", "School_nam": "Payne Elementary School", "School_sec": "DCPS", "School_gra": "PK3-5", "Facility_a": "1445 C Street SE", "MAR_latitu": 38.88517068, "MAR_longit": -76.98498373, "Ward__2022": "Ward 6", "DCPS_bound": "Eastern", "Grade_rang": "PK3-5", "Enrollment": 258.0, "Permanent_": null }, "geometry": { "type": "Point", "coordinates": [ -76.984984, 38.885171 ] } },
{ "type": "Feature", "properties": { "School_yea": "SY13-14", "School_nam": "Tubman Elementary School", "School_sec": "DCPS", "School_gra": "PK3-5", "Facility_a": "3101 13th Street NW", "MAR_latitu": 38.92919857, "MAR_longit": -77.0294433, "Ward__2022": "Ward 1", "DCPS_bound": "Cardozo", "Grade_rang": "PK3-5", "Enrollment": 509.0, "Permanent_": null }, "geometry": { "type": "Point", "coordinates": [ -77.029443, 38.929199 ] } },
{ "type": "Feature", "properties": { "School_yea": "SY13-14", "School_nam": "King, M L Elementary School", "School_sec": "DCPS", "School_gra": "PK3-5", "Facility_a": "3200 6th Street SE", "MAR_latitu": 38.84244319, "MAR_longit": -76.99823899, "Ward__2022": "Ward 8", "DCPS_bound": "Ballou", "Grade_rang": "PK3-5", "Enrollment": 410.0, "Permanent_": null }, "geometry": { "type": "Point", "coordinates": [ -76.998239, 38.842443 ] } },
{ "type": "Feature", "properties": { "School_yea": "SY13-14", "School_nam": "Hyde-Addison Elementary School", "School_sec": "DCPS", "School_gra": "PK4-5", "Facility_a": "3219 O Street NW", "MAR_latitu": 38.90801957, "MAR_longit": -77.06453782, "Ward__2022": "Ward 2", "DCPS_bound": "MacArthur", "Grade_rang": "PK4-5", "Enrollment": 334.0, "Permanent_": null }, "geometry": { "type": "Point", "coordinates": [ -77.064538, 38.90802 ] } },
{ "type": "Feature", "properties": { "School_yea": "SY13-14", "School_nam": "Turner Elementary School", "School_sec": "DCPS", "School_gra": "PK3-5", "Facility_a": "3264 Stanton Road SE", "MAR_latitu": 38.84763644, "MAR_longit": -76.98031323, "Ward__2022": "Ward 8", "DCPS_bound": "Ballou", "Grade_rang": "PK3-5", "Enrollment": 403.0, "Permanent_": null }, "geometry": { "type": "Point", "coordinates": [ -76.980313, 38.847636 ] } },
{ "type": "Feature", "properties": { "School_yea": "SY13-14", "School_nam": "Brent Elementary School", "School_sec": "DCPS", "School_gra": "PK3-5", "Facility_a": "301 North Carolina Avenue SE", "MAR_latitu": 38.88480121, "MAR_longit": -77.00145985, "Ward__2022": "Ward 6", "DCPS_bound": "Eastern", "Grade_rang": "PK3-5", "Enrollment": 359.0, "Permanent_": null }, "geometry": { "type": "Point", "coordinates": [ -77.00146, 38.884801 ] } },
{ "type": "Feature", "properties": { "School_yea": "SY13-14", "School_nam": "Eaton Elementary School", "School_sec": "DCPS", "School_gra": "PK4-5", "Facility_a": "3301 Lowell Street NW", "MAR_latitu": 38.93272707, "MAR_longit": -77.06582114, "Ward__2022": "Ward 3", "DCPS_bound": "MacArthur", "Grade_rang": "PK4-5", "Enrollment": 470.0, "Permanent_": null }, "geometry": { "type": "Point", "coordinates": [ -77.065821, 38.932727 ] } },
{ "type": "Feature", "properties": { "School_yea": "SY13-14", "School_nam": "Kimball Elementary School", "School_sec": "DCPS", "School_gra": "PK3-5", "Facility_a": "3375 Minnesota Avenue SE", "MAR_latitu": 38.88308309, "MAR_longit": -76.95757271, "Ward__2022": "Ward 7", "DCPS_bound": "Anacostia", "Grade_rang": "PK3-5", "Enrollment": 330.0, "Permanent_": null }, "geometry": { "type": "Point", "coordinates": [ -76.957573, 38.883083 ] } },
{ "type": "Feature", "properties": { "School_yea": "SY13-14", "School_nam": "Eagle Academy PCS - The Eagle Center at McGogney", "School_sec": "Public charter", "School_gra": "PK3-3", "Facility_a": "3400 Wheeler Road SE", "MAR_latitu": 38.84026907, "MAR_longit": -76.9930375, "Ward__2022": "Ward 8", "DCPS_bound": "Ballou", "Grade_rang": "PK3-3", "Enrollment": 749.0, "Permanent_": null }, "geometry": { "type": "Point", "coordinates": [ -76.993037, 38.840269 ] } },
{ "type": "Feature", "properties": { "School_yea": "SY13-14", "School_nam": "Bruce-Monroe Elementary School @ Park View", "School_sec": "DCPS", "School_gra": "PK3-5", "Facility_a": "3560 Warder Street NW", "MAR_latitu": 38.9344141, "MAR_longit": -77.02118567, "Ward__2022": "Ward 1", "DCPS_bound": "Roosevelt", "Grade_rang": "PK3-5", "Enrollment": 465.0, "Permanent_": null }, "geometry": { "type": "Point", "coordinates": [ -77.021186, 38.934414 ] } },
{ "type": "Feature", "properties": { "School_yea": "SY13-14", "School_nam": "Beers Elementary School", "School_sec": "DCPS", "School_gra": "PK3-5", "Facility_a": "3600 Alabama Avenue SE", "MAR_latitu": 38.86434984, "MAR_longit": -76.95560475000001, "Ward__2022": "Ward 7", "DCPS_bound": "Anacostia", "Grade_rang": "PK3-5", "Enrollment": 422.0, "Permanent_": null }, "geometry": { "type": "Point", "coordinates": [ -76.955605, 38.86435 ] } },
{ "type": "Feature", "properties": { "School_yea": "SY13-14", "School_nam": "Hearst Elementary School", "School_sec": "DCPS", "School_gra": "PK3-5", "Facility_a": "3950 37th Street NW", "MAR_latitu": 38.94072265, "MAR_longit": -77.07195522000001, "Ward__2022": "Ward 3", "DCPS_bound": "Jackson-Reed", "Grade_rang": "PK3-5", "Enrollment": 287.0, "Permanent_": null }, "geometry": { "type": "Point", "coordinates": [ -77.071955, 38.940723 ] } },
{ "type": "Feature", "properties": { "School_yea": "SY13-14", "School_nam": "Amidon Bowen Elementary School", "School_sec": "DCPS", "School_gra": "PK3-5", "Facility_a": "401 I Street SW", "MAR_latitu": 38.8795154, "MAR_longit": -77.0181253, "Ward__2022": "Ward 6", "DCPS_bound": "Eastern", "Grade_rang": "PK3-5", "Enrollment": 342.0, "Permanent_": null }, "geometry": { "type": "Point", "coordinates": [ -77.018125, 38.879515 ] } },
{ "type": "Feature", "properties": { "School_yea": "SY13-14", "School_nam": "AppleTree Early Learning PCS - Amidon", "School_sec": "Public charter", "School_gra": "PK3", "Facility_a": "401 I Street SW", "MAR_latitu": 38.8795154, "MAR_longit": -77.0181253, "Ward__2022": "Ward 6", "DCPS_bound": "Eastern", "Grade_rang": "PK3", "Enrollment": 39.5, "Permanent_": null }, "geometry": { "type": "Point", "coordinates": [ -77.018125, 38.879515 ] } },
{ "type": "Feature", "properties": { "School_yea": "SY13-14", "School_nam": "Simon Elementary School", "School_sec": "DCPS", "School_gra": "PK3-5", "Facility_a": "401 Mississippi Avenue SE", "MAR_latitu": 38.83598054, "MAR_longit": -77.000195, "Ward__2022": "Ward 8", "DCPS_bound": "Ballou", "Grade_rang": "PK3-5", "Enrollment": 296.0, "Permanent_": null }, "geometry": { "type": "Point", "coordinates": [ -77.000195, 38.835981 ] } },
{ "type": "Feature", "properties": { "School_yea": "SY13-14", "School_nam": "Stoddert Elementary School", "School_sec": "DCPS", "School_gra": "PK4-5", "Facility_a": "4001 Calvert Street NW", "MAR_latitu": 38.92304465, "MAR_longit": -77.0790738, "Ward__2022": "Ward 3", "DCPS_bound": "MacArthur", "Grade_rang": "PK4-5", "Enrollment": 381.0, "Permanent_": null }, "geometry": { "type": "Point", "coordinates": [ -77.079074, 38.923045 ] } },
{ "type": "Feature", "properties": { "School_yea": "SY13-14", "School_nam": "Janney Elementary School", "School_sec": "DCPS", "School_gra": "PK4-5", "Facility_a": "4130 Albemarle Street NW", "MAR_latitu": 38.94755042, "MAR_longit": -77.08099483, "Ward__2022": "Ward 3", "DCPS_bound": "Jackson-Reed", "Grade_rang": "PK4-5", "Enrollment": 627.0, "Permanent_": null }, "geometry": { "type": "Point", "coordinates": [ -77.080995, 38.94755 ] } },
{ "type": "Feature", "properties": { "School_yea": "SY13-14", "School_nam": "Watkins Elementary School (Capitol Hill Cluster)", "School_sec": "DCPS", "School_gra": "1-5", "Facility_a": "420 12th Street SE", "MAR_latitu": 38.88346701, "MAR_longit": -76.98999677, "Ward__2022": "Ward 6", "DCPS_bound": "Eastern", "Grade_rang": "1-5", "Enrollment": 545.0, "Permanent_": null }, "geometry": { "type": "Point", "coordinates": [ -76.989997, 38.883467 ] } },
{ "type": "Feature", "properties": { "School_yea": "SY13-14", "School_nam": "Leckie Elementary School", "School_sec": "DCPS", "School_gra": "PK3-5", "Facility_a": "4201 Martin Luther King Jr Avenue SW", "MAR_latitu": 38.82819678, "MAR_longit": -77.01289191, "Ward__2022": "Ward 8", "DCPS_bound": "Ballou", "Grade_rang": "PK3-5", "Enrollment": 374.0, "Permanent_": null }, "geometry": { "type": "Point", "coordinates": [ -77.012892, 38.828197 ] } },
{ "type": "Feature", "properties": { "School_yea": "SY13-14", "School_nam": "Peabody Elementary School (Capitol Hill Cluster)", "School_sec": "DCPS", "School_gra": "PK3-K", "Facility_a": "425 C Street NE", "MAR_latitu": 38.89289632, "MAR_longit": -76.99985799, "Ward__2022": "Ward 6", "DCPS_bound": "Eastern", "Grade_rang": "PK3-K", "Enrollment": 228.0, "Permanent_": null }, "geometry": { "type": "Point", "coordinates": [ -76.999858, 38.892896 ] } },
{ "type": "Feature", "properties": { "School_yea": "SY13-14", "School_nam": "Hendley Elementary School", "School_sec": "DCPS", "School_gra": "PK3-5", "Facility_a": "425 Chesapeake Street SE", "MAR_latitu": 38.82898591, "MAR_longit": -76.99918485000001, "Ward__2022": "Ward 8", "DCPS_bound": "Ballou", "Grade_rang": "PK3-5", "Enrollment": 521.0, "Permanent_": null }, "geometry": { "type": "Point", "coordinates": [ -76.999185, 38.828986 ] } },
{ "type": "Feature", "properties": { "School_yea": "SY13-14", "School_nam": "Barnard Elementary School", "School_sec": "DCPS", "School_gra": "PK3-5", "Facility_a": "430 Decatur Street NW", "MAR_latitu": 38.94823095, "MAR_longit": -77.01777708, "Ward__2022": "Ward 4", "DCPS_bound": "Roosevelt", "Grade_rang": "PK3-5", "Enrollment": 583.0, "Permanent_": null }, "geometry": { "type": "Point", "coordinates": [ -77.017777, 38.948231 ] } },
{ "type": "Feature", "properties": { "School_yea": "SY13-14", "School_nam": "Bridges PCS @ Sharpe", "School_sec": "Public charter", "School_gra": "PK3-1", "Facility_a": "4300 13th Street NW", "MAR_latitu": 38.94347466, "MAR_longit": -77.03046833000001, "Ward__2022": "Ward 4", "DCPS_bound": "Roosevelt", "Grade_rang": "PK3-1", "Enrollment": 105.5, "Permanent_": null }, "geometry": { "type": "Point", "coordinates": [ -77.030468, 38.943475 ] } },
{ "type": "Feature", "properties": { "School_yea": "SY13-14", "School_nam": "Patterson Elementary School", "School_sec": "DCPS", "School_gra": "PK3-5", "Facility_a": "4399 South Capitol Terrace SW", "MAR_latitu": 38.82696636, "MAR_longit": -77.00848471, "Ward__2022": "Ward 8", "DCPS_bound": "Ballou", "Grade_rang": "PK3-5", "Enrollment": 356.0, "Permanent_": null }, "geometry": { "type": "Point", "coordinates": [ -77.008485, 38.826966 ] } },
{ "type": "Feature", "properties": { "School_yea": "SY13-14", "School_nam": "Smothers Elementary School", "School_sec": "DCPS", "School_gra": "PK3-5", "Facility_a": "4400 Brooks Street NE", "MAR_latitu": 38.89355404, "MAR_longit": -76.93846864, "Ward__2022": "Ward 7", "DCPS_bound": "Woodson", "Grade_rang": "PK3-5", "Enrollment": 290.0, "Permanent_": null }, "geometry": { "type": "Point", "coordinates": [ -76.938469, 38.893554 ] } },
{ "type": "Feature", "properties": { "School_yea": "SY13-14", "School_nam": "Mann Elementary School", "School_sec": "DCPS", "School_gra": "PK4-5", "Facility_a": "4430 Newark Street NW", "MAR_latitu": 38.93429231, "MAR_longit": -77.08782619, "Ward__2022": "Ward 3", "DCPS_bound": "MacArthur", "Grade_rang": "PK4-5", "Enrollment": 287.0, "Permanent_": null }, "geometry": { "type": "Point", "coordinates": [ -77.087826, 38.934292 ] } },
{ "type": "Feature", "properties": { "School_yea": "SY13-14", "School_nam": "E.L. Haynes PCS - Elementary School", "School_sec": "Public charter", "School_gra": "PK3-4", "Facility_a": "4501 Kansas Avenue NW", "MAR_latitu": 38.94560189, "MAR_longit": -77.02241638, "Ward__2022": "Ward 4", "DCPS_bound": "Roosevelt", "Grade_rang": "PK3-4", "Enrollment": 383.0, "Permanent_": null }, "geometry": { "type": "Point", "coordinates": [ -77.022416, 38.945602 ] } },
{ "type": "Feature", "properties": { "School_yea": "SY13-14", "School_nam": "Ingenuity Prep PCS", "School_sec": "Public charter", "School_gra": "PK3-K", "Facility_a": "4600 Livingston Road SE", "MAR_latitu": 38.82390393, "MAR_longit": -77.00308684, "Ward__2022": "Ward 8", "DCPS_bound": "Ballou", "Grade_rang": "PK3-K", "Enrollment": 108.0, "Permanent_": null }, "geometry": { "type": "Point", "coordinates": [ -77.003087, 38.823904 ] } },
{ "type": "Feature", "properties": { "School_yea": "SY13-14", "School_nam": "Murch Elementary School", "School_sec": "DCPS", "School_gra": "PK4-5", "Facility_a": "4810 36th Street NW", "MAR_latitu": 38.95293352, "MAR_longit": -77.07007921, "Ward__2022": "Ward 3", "DCPS_bound": "Jackson-Reed", "Grade_rang": "PK4-5", "Enrollment": 626.0, "Permanent_": null }, "geometry": { "type": "Point", "coordinates": [ -77.070079, 38.952934 ] } },
{ "type": "Feature", "properties": { "School_yea": "SY13-14", "School_nam": "Key Elementary School", "School_sec": "DCPS", "School_gra": "PK4-5", "Facility_a": "5001 Dana Place NW", "MAR_latitu": 38.92680184, "MAR_longit": -77.10052732, "Ward__2022": "Ward 3", "DCPS_bound": "MacArthur", "Grade_rang": "PK4-5", "Enrollment": 381.0, "Permanent_": null }, "geometry": { "type": "Point", "coordinates": [ -77.100527, 38.926802 ] } },
{ "type": "Feature", "properties": { "School_yea": "SY13-14", "School_nam": "LaSalle-Backus Education Campus", "School_sec": "DCPS", "School_gra": "PK3-8", "Facility_a": "501 Riggs Road NE", "MAR_latitu": 38.95997214, "MAR_longit": -76.99988254, "Ward__2022": "Ward 4", "DCPS_bound": "Coolidge", "Grade_rang": "PK3-5", "Enrollment": 246.0, "Permanent_": null }, "geometry": { "type": "Point", "coordinates": [ -76.999883, 38.959972 ] } },
{ "type": "Feature", "properties": { "School_yea": "SY13-14", "School_nam": "Aiton Elementary School", "School_sec": "DCPS", "School_gra": "PK3-5", "Facility_a": "533 48th Place NE", "MAR_latitu": 38.89700181, "MAR_longit": -76.93370092000001, "Ward__2022": "Ward 7", "DCPS_bound": "Woodson", "Grade_rang": "PK3-5", "Enrollment": 247.0, "Permanent_": null }, "geometry": { "type": "Point", "coordinates": [ -76.933701, 38.897002 ] } },
{ "type": "Feature", "properties": { "School_yea": "SY13-14", "School_nam": "Drew Elementary School", "School_sec": "DCPS", "School_gra": "PK3-5", "Facility_a": "5600 Eads Street NE", "MAR_latitu": 38.89599397, "MAR_longit": -76.91992701, "Ward__2022": "Ward 7", "DCPS_bound": "Woodson", "Grade_rang": "PK3-5", "Enrollment": 168.0, "Permanent_": null }, "geometry": { "type": "Point", "coordinates": [ -76.919927, 38.895994 ] } },
{ "type": "Feature", "properties": { "School_yea": "SY13-14", "School_nam": "J O Wilson Elementary School", "School_sec": "DCPS", "School_gra": "PK3-5", "Facility_a": "660 K Street NE", "MAR_latitu": 38.902758, "MAR_longit": -76.99658902, "Ward__2022": "Ward 6", "DCPS_bound": "Eastern", "Grade_rang": "PK3-5", "Enrollment": 433.0, "Permanent_": null }, "geometry": { "type": "Point", "coordinates": [ -76.996589, 38.902758 ] } },
{ "type": "Feature", "properties": { "School_yea": "SY13-14", "School_nam": "Miner Elementary School", "School_sec": "DCPS", "School_gra": "PK3-5", "Facility_a": "601 15th Street NE", "MAR_latitu": 38.89737602, "MAR_longit": -76.98290432, "Ward__2022": "Ward 7", "DCPS_bound": "Eastern", "Grade_rang": "PK3-5", "Enrollment": 426.0, "Permanent_": null }, "geometry": { "type": "Point", "coordinates": [ -76.982904, 38.897376 ] } },
{ "type": "Feature", "properties": { "School_yea": "SY13-14", "School_nam": "Whittier Education Campus", "School_sec": "DCPS", "School_gra": "PK3-8", "Facility_a": "6201 5th Street NW", "MAR_latitu": 38.96585727, "MAR_longit": -77.0192386, "Ward__2022": "Ward 4", "DCPS_bound": "Coolidge", "Grade_rang": "PK3-5", "Enrollment": 259.0, "Permanent_": null }, "geometry": { "type": "Point", "coordinates": [ -77.019239, 38.965857 ] } },
{ "type": "Feature", "properties": { "School_yea": "SY13-14", "School_nam": "Thomas Elementary School", "School_sec": "DCPS", "School_gra": "PK3-5", "Facility_a": "650 Anacostia Avenue NE", "MAR_latitu": 38.90127897, "MAR_longit": -76.95211091, "Ward__2022": "Ward 7", "DCPS_bound": "Woodson", "Grade_rang": "PK3-5", "Enrollment": 414.0, "Permanent_": null }, "geometry": { "type": "Point", "coordinates": [ -76.952111, 38.901279 ] } },
{ "type": "Feature", "properties": { "School_yea": "SY13-14", "School_nam": "Ludlow-Taylor Elementary School", "School_sec": "DCPS", "School_gra": "PK3-5", "Facility_a": "659 G Street NE", "MAR_latitu": 38.89874414, "MAR_longit": -76.99649249, "Ward__2022": "Ward 6", "DCPS_bound": "Eastern", "Grade_rang": "PK3-5", "Enrollment": 299.0, "Permanent_": null }, "geometry": { "type": "Point", "coordinates": [ -76.996492, 38.898744 ] } },
{ "type": "Feature", "properties": { "School_yea": "SY13-14", "School_nam": "Takoma Education Campus", "School_sec": "DCPS", "School_gra": "PK3-8", "Facility_a": "7010 Piney Branch Road NW", "MAR_latitu": 38.97504287, "MAR_longit": -77.02279493, "Ward__2022": "Ward 4", "DCPS_bound": "Coolidge", "Grade_rang": "PK3-5", "Enrollment": 328.0, "Permanent_": null }, "geometry": { "type": "Point", "coordinates": [ -77.022795, 38.975043 ] } },
{ "type": "Feature", "properties": { "School_yea": "SY13-14", "School_nam": "Tyler Elementary School", "School_sec": "DCPS", "School_gra": "PK3-5", "Facility_a": "1001 G Street SE", "MAR_latitu": 38.88108436, "MAR_longit": -76.99204166, "Ward__2022": "Ward 6", "DCPS_bound": "Eastern", "Grade_rang": "PK3-5", "Enrollment": 507.0, "Permanent_": null }, "geometry": { "type": "Point", "coordinates": [ -76.992042, 38.881084 ] } },
{ "type": "Feature", "properties": { "School_yea": "SY13-14", "School_nam": "Truesdell Education Campus", "School_sec": "DCPS", "School_gra": "PK3-8", "Facility_a": "800 Ingraham Street NW", "MAR_latitu": 38.95396869, "MAR_longit": -77.02507158, "Ward__2022": "Ward 4", "DCPS_bound": "Roosevelt", "Grade_rang": "PK3-5", "Enrollment": 362.0, "Permanent_": null }, "geometry": { "type": "Point", "coordinates": [ -77.025072, 38.953969 ] } },
{ "type": "Feature", "properties": { "School_yea": "SY13-14", "School_nam": "Burrville Elementary School", "School_sec": "DCPS", "School_gra": "PK3-5", "Facility_a": "801 Division Avenue NE", "MAR_latitu": 38.90056577, "MAR_longit": -76.92445918, "Ward__2022": "Ward 7", "DCPS_bound": "Woodson", "Grade_rang": "PK3-5", "Enrollment": 354.0, "Permanent_": null }, "geometry": { "type": "Point", "coordinates": [ -76.924459, 38.900566 ] } },
{ "type": "Feature", "properties": { "School_yea": "SY13-14", "School_nam": "Achievement Preparatory PCS", "School_sec": "Public charter", "School_gra": "4-8", "Facility_a": "908 Wahler Place SE", "MAR_latitu": 38.83432822, "MAR_longit": -76.99226882000001, "Ward__2022": "Ward 8", "DCPS_bound": "Ballou", "Grade_rang": "4-5", "Enrollment": 219.0, "Permanent_": null }, "geometry": { "type": "Point", "coordinates": [ -76.992269, 38.834328 ] } },
{ "type": "Feature", "properties": { "School_yea": "SY13-14", "School_nam": "Capital City PCS - Lower School", "School_sec": "Public charter", "School_gra": "PK3-4", "Facility_a": "100 Peabody Street NW", "MAR_latitu": 38.96216486, "MAR_longit": -77.01286745, "Ward__2022": "Ward 4", "DCPS_bound": "Coolidge", "Grade_rang": "PK3-4", "Enrollment": 321.0, "Permanent_": null }, "geometry": { "type": "Point", "coordinates": [ -77.012867, 38.962165 ] } },
{ "type": "Feature", "properties": { "School_yea": "SY13-14", "School_nam": "Capital City PCS - Middle School", "School_sec": "Public charter", "School_gra": "5-8", "Facility_a": "100 Peabody Street NW", "MAR_latitu": 38.96216486, "MAR_longit": -77.01286745, "Ward__2022": "Ward 4", "DCPS_bound": "Coolidge", "Grade_rang": "5", "Enrollment": 81.0, "Permanent_": null }, "geometry": { "type": "Point", "coordinates": [ -77.012867, 38.962165 ] } },
{ "type": "Feature", "properties": { "School_yea": "SY13-14", "School_nam": "Community Academy Amos I", "School_sec": "Public charter", "School_gra": "PK3-5", "Facility_a": "1300 Allison Street NW", "MAR_latitu": 38.94470049, "MAR_longit": -77.03054061, "Ward__2022": "Ward 4", "DCPS_bound": "Roosevelt", "Grade_rang": "PK3-5", "Enrollment": 596.0, "Permanent_": null }, "geometry": { "type": "Point", "coordinates": [ -77.030541, 38.9447 ] } },
{ "type": "Feature", "properties": { "School_yea": "SY13-14", "School_nam": "Community Academy Amos II", "School_sec": "Public charter", "School_gra": "PK3-K", "Facility_a": "33 Riggs Road NE", "MAR_latitu": 38.95492264, "MAR_longit": -77.00663786, "Ward__2022": "Ward 5", "DCPS_bound": "Coolidge", "Grade_rang": "PK3-K", "Enrollment": 288.0, "Permanent_": null }, "geometry": { "type": "Point", "coordinates": [ -77.006638, 38.954923 ] } },
{ "type": "Feature", "properties": { "School_yea": "SY13-14", "School_nam": "KIPP DC PCS Grow Academy", "School_sec": "Public charter", "School_gra": "PK3-K", "Facility_a": "421 P Street NW", "MAR_latitu": 38.90988639, "MAR_longit": -77.01811734, "Ward__2022": "Ward 2", "DCPS_bound": "Cardozo", "Grade_rang": "PK3-K", "Enrollment": 304.0, "Permanent_": null }, "geometry": { "type": "Point", "coordinates": [ -77.018117, 38.909886 ] } },
{ "type": "Feature", "properties": { "School_yea": "SY13-14", "School_nam": "KIPP DC PCS Lead Academy", "School_sec": "Public charter", "School_gra": "1-2", "Facility_a": "421 P Street NW", "MAR_latitu": 38.90988639, "MAR_longit": -77.01811734, "Ward__2022": "Ward 2", "DCPS_bound": "Cardozo", "Grade_rang": "1-2", "Enrollment": 215.0, "Permanent_": null }, "geometry": { "type": "Point", "coordinates": [ -77.018117, 38.909886 ] } },
{ "type": "Feature", "properties": { "School_yea": "SY13-14", "School_nam": "KIPP DC PCS WILL Academy", "School_sec": "Public charter", "School_gra": "4-8", "Facility_a": "421 P Street NW", "MAR_latitu": 38.90988639, "MAR_longit": -77.01811734, "Ward__2022": "Ward 2", "DCPS_bound": "Cardozo", "Grade_rang": "4-5", "Enrollment": 158.0, "Permanent_": null }, "geometry": { "type": "Point", "coordinates": [ -77.018117, 38.909886 ] } },
{ "type": "Feature", "properties": { "School_yea": "SY13-14", "School_nam": "Perry Street Preparatory PCS", "School_sec": "Public charter", "School_gra": "PK3-12", "Facility_a": "1800 Perry Street NE", "MAR_latitu": 38.93679648, "MAR_longit": -76.97859551000001, "Ward__2022": "Ward 5", "DCPS_bound": "Dunbar", "Grade_rang": "PK3-5", "Enrollment": 258.0, "Permanent_": null }, "geometry": { "type": "Point", "coordinates": [ -76.978596, 38.936796 ] } },
{ "type": "Feature", "properties": { "School_yea": "SY13-14", "School_nam": "Excel Academy PCS", "School_sec": "Public charter", "School_gra": "PK3-5", "Facility_a": "2501 Martin Luther King Jr Avenue SE", "MAR_latitu": 38.85976209, "MAR_longit": -76.99535457, "Ward__2022": "Ward 8", "DCPS_bound": "Anacostia", "Grade_rang": "PK3-5", "Enrollment": 617.0, "Permanent_": null }, "geometry": { "type": "Point", "coordinates": [ -76.995355, 38.859762 ] } },
{ "type": "Feature", "properties": { "School_yea": "SY13-14", "School_nam": "Langdon Education Campus", "School_sec": "DCPS", "School_gra": "PK3-8", "Facility_a": "1900 Evarts Street NE", "MAR_latitu": 38.92470416, "MAR_longit": -76.97708185, "Ward__2022": "Ward 5", "DCPS_bound": "Dunbar", "Grade_rang": "PK3-5", "Enrollment": 281.0, "Permanent_": null }, "geometry": { "type": "Point", "coordinates": [ -76.977082, 38.924704 ] } },
{ "type": "Feature", "properties": { "School_yea": "SY13-14", "School_nam": "Raymond Education Campus", "School_sec": "DCPS", "School_gra": "PK3-8", "Facility_a": "915 Spring Road NW", "MAR_latitu": 38.93581121, "MAR_longit": -77.02643266, "Ward__2022": "Ward 4", "DCPS_bound": "Roosevelt", "Grade_rang": "PK3-5", "Enrollment": 417.0, "Permanent_": null }, "geometry": { "type": "Point", "coordinates": [ -77.026433, 38.935811 ] } },
{ "type": "Feature", "properties": { "School_yea": "SY13-14", "School_nam": "Arts and Technology PCS*", "School_sec": "Public charter", "School_gra": "PK3-5", "Facility_a": "5300 Blaine Street NE", "MAR_latitu": 38.89194821, "MAR_longit": -76.9246449, "Ward__2022": "Ward 7", "DCPS_bound": "Woodson", "Grade_rang": "PK3-5", "Enrollment": 618.0, "Permanent_": null }, "geometry": { "type": "Point", "coordinates": [ -76.924645, 38.891948 ] } },
{ "type": "Feature", "properties": { "School_yea": "SY13-14", "School_nam": "Community Academy Amos III Armstrong*", "School_sec": "Public charter", "School_gra": "PK3-5", "Facility_a": "1400 1st Street NW", "MAR_latitu": 38.90908026, "MAR_longit": -77.0132191, "Ward__2022": "Ward 5", "DCPS_bound": "Dunbar", "Grade_rang": "PK3-5", "Enrollment": 309.0, "Permanent_": null }, "geometry": { "type": "Point", "coordinates": [ -77.013219, 38.90908 ] } },
{ "type": "Feature", "properties": { "School_yea": "SY13-14", "School_nam": "Community Academy Butler Bilingual", "School_sec": "Public charter", "School_gra": "PK3-5", "Facility_a": "1400 1st Street NW", "MAR_latitu": 38.90908026, "MAR_longit": -77.0132191, "Ward__2022": "Ward 5", "DCPS_bound": "Dunbar", "Grade_rang": "PK3-5", "Enrollment": 264.0, "Permanent_": null }, "geometry": { "type": "Point", "coordinates": [ -77.013219, 38.90908 ] } },
{ "type": "Feature", "properties": { "School_yea": "SY13-14", "School_nam": "Friendship PCS - Blow Pierce Elementary", "School_sec": "Public charter", "School_gra": "PK3-8", "Facility_a": "725 19th Street NE", "MAR_latitu": 38.89782045, "MAR_longit": -76.97648125000001, "Ward__2022": "Ward 7", "DCPS_bound": "Eastern", "Grade_rang": "PK3-5", "Enrollment": 436.0, "Permanent_": null }, "geometry": { "type": "Point", "coordinates": [ -76.976481, 38.89782 ] } },
{ "type": "Feature", "properties": { "School_yea": "SY13-14", "School_nam": "Imagine Southeast PCS*", "School_sec": "Public charter", "School_gra": "PK3-6", "Facility_a": "3100 Martin Luther King Jr Avenue SE", "MAR_latitu": 38.84349726, "MAR_longit": -76.99814278, "Ward__2022": "Ward 8", "DCPS_bound": "Ballou", "Grade_rang": "PK3-5", "Enrollment": 436.0, "Permanent_": null }, "geometry": { "type": "Point", "coordinates": [ -76.998143, 38.843497 ] } },
{ "type": "Feature", "properties": { "School_yea": "SY13-14", "School_nam": "Latin American Montessori Bilingual (LAMB) PCS [Missouri Avenue]", "School_sec": "Public charter", "School_gra": "PK3-5", "Facility_a": "1375 Missouri Avenue NW", "MAR_latitu": 38.96216089, "MAR_longit": -77.03239905, "Ward__2022": "Ward 4", "DCPS_bound": "Coolidge", "Grade_rang": "PK3-5", "Enrollment": 120.6, "Permanent_": null }, "geometry": { "type": "Point", "coordinates": [ -77.032399, 38.962161 ] } },
{ "type": "Feature", "properties": { "School_yea": "SY13-14", "School_nam": "Randle Highlands Elementary School", "School_sec": "DCPS", "School_gra": "PK3-5", "Facility_a": "1650 30th Street SE", "MAR_latitu": 38.87009174, "MAR_longit": -76.96435628, "Ward__2022": "Ward 7", "DCPS_bound": "Anacostia", "Grade_rang": "PK3-5", "Enrollment": 335.0, "Permanent_": null }, "geometry": { "type": "Point", "coordinates": [ -76.964356, 38.870092 ] } },
{ "type": "Feature", "properties": { "School_yea": "SY13-14", "School_nam": "Community Academy Online", "School_sec": "Public charter", "School_gra": "K-8", "Facility_a": "1351 Nicholson Street NW", "MAR_latitu": 38.96052008, "MAR_longit": -77.03159596, "Ward__2022": "Ward 4", "DCPS_bound": "Coolidge", "Grade_rang": "K-5", "Enrollment": 97.0, "Permanent_": null }, "geometry": { "type": "Point", "coordinates": [ -77.031596, 38.96052 ] } },
{ "type": "Feature", "properties": { "School_yea": "SY13-14", "School_nam": "DC Bilingual PCS", "School_sec": "Public charter", "School_gra": "PK3-6", "Facility_a": "3029 14th street NW", "MAR_latitu": 38.92839159, "MAR_longit": -77.03222848, "Ward__2022": "Ward 1", "DCPS_bound": "Cardozo", "Grade_rang": "PK3-5", "Enrollment": 180.5, "Permanent_": null }, "geometry": { "type": "Point", "coordinates": [ -77.032228, 38.928392 ] } },
{ "type": "Feature", "properties": { "School_yea": "SY13-14", "School_nam": "BASIS DC PCS", "School_sec": "Public charter", "School_gra": "5-9", "Facility_a": "410 8th Street NW", "MAR_latitu": 38.8952687, "MAR_longit": -77.02329647000001, "Ward__2022": "Ward 2", "DCPS_bound": "Cardozo", "Grade_rang": "5", "Enrollment": 133.0, "Permanent_": null }, "geometry": { "type": "Point", "coordinates": [ -77.023296, 38.895269 ] } },
{ "type": "Feature", "properties": { "School_yea": "SY13-14", "School_nam": "Mundo Verde Bilingual PCS", "School_sec": "Public charter", "School_gra": "PK3-2", "Facility_a": "3220 16th Street NW", "MAR_latitu": 38.93131343, "MAR_longit": -77.03681, "Ward__2022": "Ward 1", "DCPS_bound": "Jackson-Reed", "Grade_rang": "PK3-2", "Enrollment": 274.0, "Permanent_": null }, "geometry": { "type": "Point", "coordinates": [ -77.03681, 38.931313 ] } },
{ "type": "Feature", "properties": { "School_yea": "SY13-14", "School_nam": "Bridges PCS - Main", "School_sec": "Public charter", "School_gra": "PK3-1", "Facility_a": "1250 Taylor Street NW", "MAR_latitu": 38.94050005, "MAR_longit": -77.02862381, "Ward__2022": "Ward 4", "DCPS_bound": "Roosevelt", "Grade_rang": "PK3-1", "Enrollment": 105.5, "Permanent_": null }, "geometry": { "type": "Point", "coordinates": [ -77.028624, 38.9405 ] } },
{ "type": "Feature", "properties": { "School_yea": "SY13-14", "School_nam": "Center City PCS - Brightwood", "School_sec": "Public charter", "School_gra": "PK4-8", "Facility_a": "6008 Georgia Avenue NW", "MAR_latitu": 38.96319196, "MAR_longit": -77.02832854, "Ward__2022": "Ward 4", "DCPS_bound": "Coolidge", "Grade_rang": "PK4-5", "Enrollment": 185.0, "Permanent_": null }, "geometry": { "type": "Point", "coordinates": [ -77.028329, 38.963192 ] } },
{ "type": "Feature", "properties": { "School_yea": "SY13-14", "School_nam": "Center City PCS - Capitol Hill", "School_sec": "Public charter", "School_gra": "PK4-8", "Facility_a": "1503 East Capitol Street SE", "MAR_latitu": 38.88952582, "MAR_longit": -76.98330456, "Ward__2022": "Ward 7", "DCPS_bound": "Eastern", "Grade_rang": "PK4-5", "Enrollment": 167.0, "Permanent_": null }, "geometry": { "type": "Point", "coordinates": [ -76.983305, 38.889526 ] } },
{ "type": "Feature", "properties": { "School_yea": "SY13-14", "School_nam": "Center City PCS - Congress Heights", "School_sec": "Public charter", "School_gra": "PK4-8", "Facility_a": "220 HighView Place SE", "MAR_latitu": 38.84158668, "MAR_longit": -77.00444463, "Ward__2022": "Ward 8", "DCPS_bound": "Ballou", "Grade_rang": "PK4-5", "Enrollment": 165.0, "Permanent_": null }, "geometry": { "type": "Point", "coordinates": [ -77.004445, 38.841587 ] } },
{ "type": "Feature", "properties": { "School_yea": "SY13-14", "School_nam": "Center City PCS - Petworth", "School_sec": "Public charter", "School_gra": "PK4-8", "Facility_a": "510 Webster Street NW", "MAR_latitu": 38.94387114, "MAR_longit": -77.02090667, "Ward__2022": "Ward 4", "DCPS_bound": "Roosevelt", "Grade_rang": "PK4-5", "Enrollment": 174.0, "Permanent_": null }, "geometry": { "type": "Point", "coordinates": [ -77.020907, 38.943871 ] } },
{ "type": "Feature", "properties": { "School_yea": "SY13-14", "School_nam": "Center City PCS - Shaw", "School_sec": "Public charter", "School_gra": "PK4-8", "Facility_a": "711 N Street NW", "MAR_latitu": 38.90744452, "MAR_longit": -77.02266552, "Ward__2022": "Ward 2", "DCPS_bound": "Cardozo", "Grade_rang": "PK4-5", "Enrollment": 165.0, "Permanent_": null }, "geometry": { "type": "Point", "coordinates": [ -77.022666, 38.907445 ] } },
{ "type": "Feature", "properties": { "School_yea": "SY13-14", "School_nam": "Center City PCS - Trinidad", "School_sec": "Public charter", "School_gra": "PK4-8", "Facility_a": "1217 West Virginia Avenue NE", "MAR_latitu": 38.90529915, "MAR_longit": -76.99120218, "Ward__2022": "Ward 5", "DCPS_bound": "Dunbar", "Grade_rang": "PK4-5", "Enrollment": 163.0, "Permanent_": null }, "geometry": { "type": "Point", "coordinates": [ -76.991202, 38.905299 ] } },
{ "type": "Feature", "properties": { "School_yea": "SY13-14", "School_nam": "Creative Minds International PCS", "School_sec": "Public charter", "School_gra": "PK3-3", "Facility_a": "3224 16th Street NW", "MAR_latitu": 38.93151044, "MAR_longit": -77.03681552, "Ward__2022": "Ward 1", "DCPS_bound": "Jackson-Reed", "Grade_rang": "PK3-3", "Enrollment": 137.0, "Permanent_": null }, "geometry": { "type": "Point", "coordinates": [ -77.036816, 38.93151 ] } },
{ "type": "Feature", "properties": { "School_yea": "SY13-14", "School_nam": "DC Bilingual PCS", "School_sec": "Public charter", "School_gra": "PK3-6", "Facility_a": "1420 Columbia Road NW", "MAR_latitu": 38.927196, "MAR_longit": -77.033308, "Ward__2022": "Ward 1", "DCPS_bound": "Cardozo", "Grade_rang": "PK3-5", "Enrollment": 180.5, "Permanent_": null }, "geometry": { "type": "Point", "coordinates": [ -77.033308, 38.927196 ] } },
{ "type": "Feature", "properties": { "School_yea": "SY13-14", "School_nam": "DC Prep PCS - Edgewood Elementary School", "School_sec": "Public charter", "School_gra": "PK3-3", "Facility_a": "707 Edgewood Street NE", "MAR_latitu": 38.92427699, "MAR_longit": -76.99573508, "Ward__2022": "Ward 5", "DCPS_bound": "Dunbar", "Grade_rang": "PK3-3", "Enrollment": 426.0, "Permanent_": null }, "geometry": { "type": "Point", "coordinates": [ -76.995735, 38.924277 ] } },
{ "type": "Feature", "properties": { "School_yea": "SY13-14", "School_nam": "DC Prep PCS - Edgewood Middle School", "School_sec": "Public charter", "School_gra": "4-8", "Facility_a": "701 Edgewood Street NE", "MAR_latitu": 38.92473904, "MAR_longit": -76.99600905, "Ward__2022": "Ward 5", "DCPS_bound": "Dunbar", "Grade_rang": "4-5", "Enrollment": 151.0, "Permanent_": null }, "geometry": { "type": "Point", "coordinates": [ -76.996009, 38.924739 ] } },
{ "type": "Feature", "properties": { "School_yea": "SY13-14", "School_nam": "E.L. Haynes PCS - Middle School", "School_sec": "Public charter", "School_gra": "5-8", "Facility_a": "3600 Georgia Avenue NW", "MAR_latitu": 38.93432162, "MAR_longit": -77.02424335000001, "Ward__2022": "Ward 1", "DCPS_bound": "Roosevelt", "Grade_rang": "5", "Enrollment": 50.0, "Permanent_": null }, "geometry": { "type": "Point", "coordinates": [ -77.024243, 38.934322 ] } },
{ "type": "Feature", "properties": { "School_yea": "SY13-14", "School_nam": "Eagle Academy PCS - New Jersey Avenue", "School_sec": "Public charter", "School_gra": "PK3-2", "Facility_a": "1017 New Jersey Avenue SE", "MAR_latitu": 38.8778378, "MAR_longit": -77.00508258000001, "Ward__2022": "Ward 6", "DCPS_bound": "Eastern", "Grade_rang": "PK3-2", "Enrollment": 143.0, "Permanent_": null }, "geometry": { "type": "Point", "coordinates": [ -77.005083, 38.877838 ] } },
{ "type": "Feature", "properties": { "School_yea": "SY13-14", "School_nam": "Early Childhood Academy PCS", "School_sec": "Public charter", "School_gra": "PK3-3", "Facility_a": "4025 9th Street SE", "MAR_latitu": 38.83175194, "MAR_longit": -76.99053162, "Ward__2022": "Ward 8", "DCPS_bound": "Ballou", "Grade_rang": "PK3-3", "Enrollment": 263.0, "Permanent_": null }, "geometry": { "type": "Point", "coordinates": [ -76.990532, 38.831752 ] } },
{ "type": "Feature", "properties": { "School_yea": "SY13-14", "School_nam": "AppleTree Early Learning Center PCS - Columbia Heights", "School_sec": "Public charter", "School_gra": "PK3-PK4", "Facility_a": "2750 14th Street NW", "MAR_latitu": 38.92524403, "MAR_longit": -77.03274382, "Ward__2022": "Ward 1", "DCPS_bound": "Cardozo", "Grade_rang": "PK3-PK4", "Enrollment": 161.0, "Permanent_": null }, "geometry": { "type": "Point", "coordinates": [ -77.032744, 38.925244 ] } },
{ "type": "Feature", "properties": { "School_yea": "SY13-14", "School_nam": "Briya PCS", "School_sec": "Public charter", "School_gra": "PK3-PK4; Adult", "Facility_a": "2333 Ontario Road NW", "MAR_latitu": 38.92097271, "MAR_longit": -77.0398061, "Ward__2022": "Ward 1", "DCPS_bound": "Cardozo", "Grade_rang": "PK3-PK4", "Enrollment": 22.0, "Permanent_": null }, "geometry": { "type": "Point", "coordinates": [ -77.039806, 38.920973 ] } },
{ "type": "Feature", "properties": { "School_yea": "SY13-14", "School_nam": "Elsie Whitlow Stokes Community Freedom PCS", "School_sec": "Public charter", "School_gra": "PK3-6", "Facility_a": "3700 Oakview Terrace NE", "MAR_latitu": 38.93498987, "MAR_longit": -76.99008735, "Ward__2022": "Ward 5", "DCPS_bound": "Dunbar", "Grade_rang": "PK3-5", "Enrollment": 311.0, "Permanent_": null }, "geometry": { "type": "Point", "coordinates": [ -76.990087, 38.93499 ] } },
{ "type": "Feature", "properties": { "School_yea": "SY13-14", "School_nam": "Friendship PCS - Chamberlain", "School_sec": "Public charter", "School_gra": "PK3-8", "Facility_a": "1345 Potomac Avenue SE", "MAR_latitu": 38.87938499, "MAR_longit": -76.9868023, "Ward__2022": "Ward 6", "DCPS_bound": "Eastern", "Grade_rang": "PK3-5", "Enrollment": 509.0, "Permanent_": null }, "geometry": { "type": "Point", "coordinates": [ -76.986802, 38.879385 ] } },
{ "type": "Feature", "properties": { "School_yea": "SY13-14", "School_nam": "AppleTree Early Learning Center PCS - Douglas Knoll", "School_sec": "Public charter", "School_gra": "PK3-PK4", "Facility_a": "2017 Savannah Terrace SE", "MAR_latitu": 38.84876326, "MAR_longit": -76.9749201, "Ward__2022": "Ward 8", "DCPS_bound": "Ballou", "Grade_rang": "PK3-PK4", "Enrollment": 86.0, "Permanent_": null }, "geometry": { "type": "Point", "coordinates": [ -76.97492, 38.848763 ] } },
{ "type": "Feature", "properties": { "School_yea": "SY13-14", "School_nam": "Friendship PCS - Southeast Academy", "School_sec": "Public charter", "School_gra": "PK3-5", "Facility_a": "645 Milwaukee Place SE", "MAR_latitu": 38.84779147, "MAR_longit": -76.99700774, "Ward__2022": "Ward 8", "DCPS_bound": "Ballou", "Grade_rang": "PK3-5", "Enrollment": 559.0, "Permanent_": null }, "geometry": { "type": "Point", "coordinates": [ -76.997008, 38.847791 ] } },
{ "type": "Feature", "properties": { "School_yea": "SY13-14", "School_nam": "Friendship PCS - Woodridge Campus", "School_sec": "Public charter", "School_gra": "PK3-8", "Facility_a": "2959 Carlton Avenue NE", "MAR_latitu": 38.92958893, "MAR_longit": -76.96656971, "Ward__2022": "Ward 5", "DCPS_bound": "Dunbar", "Grade_rang": "PK3-5", "Enrollment": 369.0, "Permanent_": null }, "geometry": { "type": "Point", "coordinates": [ -76.96657, 38.929589 ] } },
{ "type": "Feature", "properties": { "School_yea": "SY13-14", "School_nam": "Hope Community PCS - Lamond", "School_sec": "Public charter", "School_gra": "PK3-6", "Facility_a": "6200 Kansas Avenue NE", "MAR_latitu": 38.96571909, "MAR_longit": -77.00860715, "Ward__2022": "Ward 4", "DCPS_bound": "Coolidge", "Grade_rang": "PK3-5", "Enrollment": 374.0, "Permanent_": null }, "geometry": { "type": "Point", "coordinates": [ -77.008607, 38.965719 ] } },
{ "type": "Feature", "properties": { "School_yea": "SY13-14", "School_nam": "Hope Community PCS - Tolson", "School_sec": "Public charter", "School_gra": "PK3-8", "Facility_a": "2917 8th Street NE", "MAR_latitu": 38.9269508, "MAR_longit": -76.99461626, "Ward__2022": "Ward 5", "DCPS_bound": "Dunbar", "Grade_rang": "PK3-5", "Enrollment": 387.0, "Permanent_": null }, "geometry": { "type": "Point", "coordinates": [ -76.994616, 38.926951 ] } },
{ "type": "Feature", "properties": { "School_yea": "SY13-14", "School_nam": "Cedar Tree Academy PCS", "School_sec": "Public charter", "School_gra": "PK3-K", "Facility_a": "701 Howard Road SE", "MAR_latitu": 38.86421603, "MAR_longit": -76.99919401, "Ward__2022": "Ward 8", "DCPS_bound": "Ballou", "Grade_rang": "PK3-K", "Enrollment": 322.0, "Permanent_": null }, "geometry": { "type": "Point", "coordinates": [ -76.999194, 38.864216 ] } },
{ "type": "Feature", "properties": { "School_yea": "SY13-14", "School_nam": "AppleTree Early Learning Center PCS - Lincoln Park", "School_sec": "Public charter", "School_gra": "PK3-PK4", "Facility_a": "138 12th Street NE", "MAR_latitu": 38.89151343, "MAR_longit": -76.99053567, "Ward__2022": "Ward 6", "DCPS_bound": "Eastern", "Grade_rang": "PK3-PK4", "Enrollment": 63.0, "Permanent_": null }, "geometry": { "type": "Point", "coordinates": [ -76.990536, 38.891513 ] } },
{ "type": "Feature", "properties": { "School_yea": "SY13-14", "School_nam": "Ideal Academy PCS - North Capitol Street Campus Elementary School", "School_sec": "Public charter", "School_gra": "PK3-8", "Facility_a": "6130 North Capitol Street NW", "MAR_latitu": 38.96491986, "MAR_longit": -77.00993332, "Ward__2022": "Ward 4", "DCPS_bound": "Coolidge", "Grade_rang": "PK3-5", "Enrollment": 223.0, "Permanent_": null }, "geometry": { "type": "Point", "coordinates": [ -77.009933, 38.96492 ] } },
{ "type": "Feature", "properties": { "School_yea": "SY13-14", "School_nam": "Inspired Teaching Demonstration PCS", "School_sec": "Public charter", "School_gra": "PK3-5", "Facility_a": "1328 Florida Avenue NW", "MAR_latitu": 38.92008577, "MAR_longit": -77.03079817, "Ward__2022": "Ward 1", "DCPS_bound": "Cardozo", "Grade_rang": "PK3-5", "Enrollment": 268.0, "Permanent_": null }, "geometry": { "type": "Point", "coordinates": [ -77.030798, 38.920086 ] } },
{ "type": "Feature", "properties": { "School_yea": "SY13-14", "School_nam": "KIPP DC PCS LEAP Academy", "School_sec": "Public charter", "School_gra": "PK3-K", "Facility_a": "4801 Benning Road SE", "MAR_latitu": 38.88262754, "MAR_longit": -76.93439427, "Ward__2022": "Ward 7", "DCPS_bound": "Woodson", "Grade_rang": "PK3-K", "Enrollment": 303.0, "Permanent_": null }, "geometry": { "type": "Point", "coordinates": [ -76.934394, 38.882628 ] } },
{ "type": "Feature", "properties": { "School_yea": "SY13-14", "School_nam": "KIPP DC PCS Promise Academy", "School_sec": "Public charter", "School_gra": "1-4", "Facility_a": "4801 Benning Road SE", "MAR_latitu": 38.88262754, "MAR_longit": -76.93439427, "Ward__2022": "Ward 7", "DCPS_bound": "Woodson", "Grade_rang": "1-4", "Enrollment": 409.0, "Permanent_": null }, "geometry": { "type": "Point", "coordinates": [ -76.934394, 38.882628 ] } },
{ "type": "Feature", "properties": { "School_yea": "SY13-14", "School_nam": "KIPP DC PCS KEY Academy", "School_sec": "Public charter", "School_gra": "5-8", "Facility_a": "4801 Benning Road SE", "MAR_latitu": 38.88262754, "MAR_longit": -76.93439427, "Ward__2022": "Ward 7", "DCPS_bound": "Woodson", "Grade_rang": "5", "Enrollment": 96.0, "Permanent_": null }, "geometry": { "type": "Point", "coordinates": [ -76.934394, 38.882628 ] } },
{ "type": "Feature", "properties": { "School_yea": "SY13-14", "School_nam": "AppleTree Early Learning Center PCS - Oklahoma Avenue", "School_sec": "Public charter", "School_gra": "PK3-PK4", "Facility_a": "320 21st Street NE", "MAR_latitu": 38.89422626, "MAR_longit": -76.97545754, "Ward__2022": "Ward 7", "DCPS_bound": "Eastern", "Grade_rang": "PK3-PK4", "Enrollment": 172.0, "Permanent_": null }, "geometry": { "type": "Point", "coordinates": [ -76.975458, 38.894226 ] } },
{ "type": "Feature", "properties": { "School_yea": "SY13-14", "School_nam": "Latin American Montessori Bilingual (LAMB) PCS [Michigan Park Campus/Taylor]", "School_sec": "Public charter", "School_gra": "PK3-5", "Facility_a": "1600 Taylor Street NE", "MAR_latitu": 38.94098207, "MAR_longit": -76.98220189, "Ward__2022": "Ward 5", "DCPS_bound": "Dunbar", "Grade_rang": "PK3-5", "Enrollment": 199.4, "Permanent_": null }, "geometry": { "type": "Point", "coordinates": [ -76.982202, 38.940982 ] } },
{ "type": "Feature", "properties": { "School_yea": "SY13-14", "School_nam": "AppleTree Early Learning Center PCS - Parklands", "School_sec": "Public charter", "School_gra": "PK3-PK4", "Facility_a": "2011 Savannah Street SE", "MAR_latitu": 38.84653931, "MAR_longit": -76.97476237, "Ward__2022": "Ward 8", "DCPS_bound": "Ballou", "Grade_rang": "PK3-PK4", "Enrollment": 86.0, "Permanent_": null }, "geometry": { "type": "Point", "coordinates": [ -76.974762, 38.846539 ] } },
{ "type": "Feature", "properties": { "School_yea": "SY13-14", "School_nam": "Potomac Lighthouse PCS", "School_sec": "Public charter", "School_gra": "PK3-8", "Facility_a": "4401 8th Street NE", "MAR_latitu": 38.9429707, "MAR_longit": -76.994532, "Ward__2022": "Ward 5", "DCPS_bound": "Dunbar", "Grade_rang": "PK3-5", "Enrollment": 345.0, "Permanent_": null }, "geometry": { "type": "Point", "coordinates": [ -76.994532, 38.942971 ] } },
{ "type": "Feature", "properties": { "School_yea": "SY13-14", "School_nam": "Roots PCS", "School_sec": "Public charter", "School_gra": "PK3-8", "Facility_a": "15 Kennedy Street NW", "MAR_latitu": 38.95686375, "MAR_longit": -77.01030958, "Ward__2022": "Ward 4", "DCPS_bound": "Coolidge", "Grade_rang": "PK3-5", "Enrollment": 108.0, "Permanent_": null }, "geometry": { "type": "Point", "coordinates": [ -77.01031, 38.956864 ] } },
{ "type": "Feature", "properties": { "School_yea": "SY13-14", "School_nam": "Sela PCS", "School_sec": "Public charter", "School_gra": "PK4-1", "Facility_a": "6015 Chillum Place NE", "MAR_latitu": 38.96387483, "MAR_longit": -77.00736469, "Ward__2022": "Ward 4", "DCPS_bound": "Coolidge", "Grade_rang": "PK4-1", "Enrollment": 73.0, "Permanent_": null }, "geometry": { "type": "Point", "coordinates": [ -77.007365, 38.963875 ] } },
{ "type": "Feature", "properties": { "School_yea": "SY13-14", "School_nam": "Shining Stars Montessori Academy PCS", "School_sec": "Public charter", "School_gra": "PK3-2", "Facility_a": "1328 Florida Avenue NW", "MAR_latitu": 38.92008577, "MAR_longit": -77.03079817, "Ward__2022": "Ward 1", "DCPS_bound": "Cardozo", "Grade_rang": "PK3-2", "Enrollment": 87.0, "Permanent_": null }, "geometry": { "type": "Point", "coordinates": [ -77.030798, 38.920086 ] } },
{ "type": "Feature", "properties": { "School_yea": "SY13-14", "School_nam": "AppleTree Early Learning Center PCS - Riverside", "School_sec": "Public charter", "School_gra": "PK4", "Facility_a": "680 I Street SW", "MAR_latitu": 38.87886344, "MAR_longit": -77.02191921, "Ward__2022": "Ward 6", "DCPS_bound": "Eastern", "Grade_rang": "PK4", "Enrollment": 39.5, "Permanent_": null }, "geometry": { "type": "Point", "coordinates": [ -77.021919, 38.878863 ] } },
{ "type": "Feature", "properties": { "School_yea": "SY13-14", "School_nam": "Tree of Life Community PCS", "School_sec": "Public charter", "School_gra": "PK3-8", "Facility_a": "2315 18th Place NE", "MAR_latitu": 38.9207792, "MAR_longit": -76.97783843000001, "Ward__2022": "Ward 5", "DCPS_bound": "Dunbar", "Grade_rang": "PK3-5", "Enrollment": 253.0, "Permanent_": null }, "geometry": { "type": "Point", "coordinates": [ -76.977838, 38.920779 ] } },
{ "type": "Feature", "properties": { "School_yea": "SY13-14", "School_nam": "Two Rivers PCS Elementary School", "School_sec": "Public charter", "School_gra": "PK3-8", "Facility_a": "1227 4th Street NE", "MAR_latitu": 38.90675361, "MAR_longit": -77.00029965, "Ward__2022": "Ward 6", "DCPS_bound": "Eastern", "Grade_rang": "PK3-5", "Enrollment": 377.0, "Permanent_": null }, "geometry": { "type": "Point", "coordinates": [ -77.0003, 38.906754 ] } },
{ "type": "Feature", "properties": { "School_yea": "SY13-14", "School_nam": "Washington Yu Ying PCS", "School_sec": "Public charter", "School_gra": "PK4-6", "Facility_a": "220 Taylor Street NE", "MAR_latitu": 38.94123488, "MAR_longit": -77.00368216, "Ward__2022": "Ward 5", "DCPS_bound": "Dunbar", "Grade_rang": "PK4-5", "Enrollment": 489.0, "Permanent_": null }, "geometry": { "type": "Point", "coordinates": [ -77.003682, 38.941235 ] } },
{ "type": "Feature", "properties": { "School_yea": "SY13-14", "School_nam": "William E. Doar Jr PCS", "School_sec": "Public charter", "School_gra": "PK3-8", "Facility_a": "705 Edgewood Street NE", "MAR_latitu": 38.9236448, "MAR_longit": -76.99585343, "Ward__2022": "Ward 5", "DCPS_bound": "Dunbar", "Grade_rang": "PK3-5", "Enrollment": 364.0, "Permanent_": null }, "geometry": { "type": "Point", "coordinates": [ -76.995853, 38.923645 ] } },
{ "type": "Feature", "properties": { "School_yea": "SY14-15", "School_nam": "Washington Latin PCS - Middle School", "School_sec": "Public charter", "School_gra": "5-8", "Facility_a": "5200 2nd Street NW", "MAR_latitu": 38.95388895, "MAR_longit": -77.01381902, "Ward__2022": "Ward 4", "DCPS_bound": "Roosevelt", "Grade_rang": "5", "Enrollment": 90.0, "Permanent_": null }, "geometry": { "type": "Point", "coordinates": [ -77.013819, 38.953889 ] } },
{ "type": "Feature", "properties": { "School_yea": "SY14-15", "School_nam": "Seaton Elementary School", "School_sec": "DCPS", "School_gra": "PK3-5", "Facility_a": "1503 10th Street NW", "MAR_latitu": 38.9106187, "MAR_longit": -77.02488247, "Ward__2022": "Ward 2", "DCPS_bound": "Cardozo", "Grade_rang": "PK3-5", "Enrollment": 295.0, "Permanent_": null }, "geometry": { "type": "Point", "coordinates": [ -77.024882, 38.910619 ] } },
{ "type": "Feature", "properties": { "School_yea": "SY14-15", "School_nam": "West Education Campus", "School_sec": "DCPS", "School_gra": "PK3-8", "Facility_a": "1338 Farragut Street NW", "MAR_latitu": 38.95136741, "MAR_longit": -77.03225306, "Ward__2022": "Ward 4", "DCPS_bound": "Roosevelt", "Grade_rang": "PK3-5", "Enrollment": 203.0, "Permanent_": null }, "geometry": { "type": "Point", "coordinates": [ -77.032253, 38.951367 ] } },
{ "type": "Feature", "properties": { "School_yea": "SY14-15", "School_nam": "Orr Elementary School", "School_sec": "DCPS", "School_gra": "PK3-5", "Facility_a": "2200 Minnesota Avenue SE", "MAR_latitu": 38.87179716, "MAR_longit": -76.97448402000001, "Ward__2022": "Ward 8", "DCPS_bound": "Anacostia", "Grade_rang": "PK3-5", "Enrollment": 384.0, "Permanent_": null }, "geometry": { "type": "Point", "coordinates": [ -76.974484, 38.871797 ] } },
{ "type": "Feature", "properties": { "School_yea": "SY14-15", "School_nam": "DC Prep PCS - Benning Elementary School", "School_sec": "Public charter", "School_gra": "PK3-3", "Facility_a": "100 41st Street NE", "MAR_latitu": 38.8910218, "MAR_longit": -76.94482148, "Ward__2022": "Ward 7", "DCPS_bound": "Woodson", "Grade_rang": "PK3-3", "Enrollment": 442.0, "Permanent_": null }, "geometry": { "type": "Point", "coordinates": [ -76.944821, 38.891022 ] } },
{ "type": "Feature", "properties": { "School_yea": "SY14-15", "School_nam": "DC Prep PCS - Benning Middle School", "School_sec": "Public charter", "School_gra": "4-5", "Facility_a": "100 41st Street NE", "MAR_latitu": 38.8910218, "MAR_longit": -76.94482148, "Ward__2022": "Ward 7", "DCPS_bound": "Woodson", "Grade_rang": "4-5", "Enrollment": 152.0, "Permanent_": null }, "geometry": { "type": "Point", "coordinates": [ -76.944821, 38.891022 ] } },
{ "type": "Feature", "properties": { "School_yea": "SY14-15", "School_nam": "DC Scholars PCS", "School_sec": "Public charter", "School_gra": "PK3-5", "Facility_a": "5601 EAST CAPITOL STREET SE", "MAR_latitu": 38.88947954, "MAR_longit": -76.92174283, "Ward__2022": "Ward 7", "DCPS_bound": "Woodson", "Grade_rang": "PK3-5", "Enrollment": 389.0, "Permanent_": null }, "geometry": { "type": "Point", "coordinates": [ -76.921743, 38.88948 ] } },
{ "type": "Feature", "properties": { "School_yea": "SY14-15", "School_nam": "Walker-Jones Education Campus", "School_sec": "DCPS", "School_gra": "PK3-8", "Facility_a": "1125 New Jersey Avenue NW", "MAR_latitu": 38.90419198, "MAR_longit": -77.01391569, "Ward__2022": "Ward 6", "DCPS_bound": "Dunbar", "Grade_rang": "PK3-5", "Enrollment": 350.0, "Permanent_": null }, "geometry": { "type": "Point", "coordinates": [ -77.013916, 38.904192 ] } },
{ "type": "Feature", "properties": { "School_yea": "SY14-15", "School_nam": "Plummer Elementary School", "School_sec": "DCPS", "School_gra": "PK3-5", "Facility_a": "4601 Texas Avenue SE", "MAR_latitu": 38.8872402, "MAR_longit": -76.93993468, "Ward__2022": "Ward 7", "DCPS_bound": "Anacostia", "Grade_rang": "PK3-5", "Enrollment": 428.0, "Permanent_": null }, "geometry": { "type": "Point", "coordinates": [ -76.939935, 38.88724 ] } },
{ "type": "Feature", "properties": { "School_yea": "SY14-15", "School_nam": "Langley Elementary School", "School_sec": "DCPS", "School_gra": "PK3-5", "Facility_a": "101 T Street NE", "MAR_latitu": 38.91516879, "MAR_longit": -77.00588662, "Ward__2022": "Ward 5", "DCPS_bound": "Dunbar", "Grade_rang": "PK3-5", "Enrollment": 289.0, "Permanent_": null }, "geometry": { "type": "Point", "coordinates": [ -77.005887, 38.915169 ] } },
{ "type": "Feature", "properties": { "School_yea": "SY14-15", "School_nam": "Houston Elementary School", "School_sec": "DCPS", "School_gra": "PK3-5", "Facility_a": "1100 50th Place NE", "MAR_latitu": 38.90541532, "MAR_longit": -76.92994765, "Ward__2022": "Ward 7", "DCPS_bound": "Woodson", "Grade_rang": "PK3-5", "Enrollment": 279.0, "Permanent_": null }, "geometry": { "type": "Point", "coordinates": [ -76.929948, 38.905415 ] } },
{ "type": "Feature", "properties": { "School_yea": "SY14-15", "School_nam": "Thomson Elementary School", "School_sec": "DCPS", "School_gra": "PK3-5", "Facility_a": "1200 L Street NW", "MAR_latitu": 38.90349634, "MAR_longit": -77.02843003, "Ward__2022": "Ward 2", "DCPS_bound": "Cardozo", "Grade_rang": "PK3-5", "Enrollment": 272.0, "Permanent_": null }, "geometry": { "type": "Point", "coordinates": [ -77.02843, 38.903496 ] } },
{ "type": "Feature", "properties": { "School_yea": "SY14-15", "School_nam": "Garrison Elementary School", "School_sec": "DCPS", "School_gra": "PK3-5", "Facility_a": "1200 S Street NW", "MAR_latitu": 38.91390129, "MAR_longit": -77.02861256, "Ward__2022": "Ward 2", "DCPS_bound": "Cardozo", "Grade_rang": "PK3-5", "Enrollment": 244.0, "Permanent_": null }, "geometry": { "type": "Point", "coordinates": [ -77.028613, 38.913901 ] } },
{ "type": "Feature", "properties": { "School_yea": "SY14-15", "School_nam": "Maury Elementary School", "School_sec": "DCPS", "School_gra": "PK3-5", "Facility_a": "1250 Constitution Avenue NE", "MAR_latitu": 38.89218519, "MAR_longit": -76.9886575, "Ward__2022": "Ward 6", "DCPS_bound": "Eastern", "Grade_rang": "PK3-5", "Enrollment": 366.0, "Permanent_": null }, "geometry": { "type": "Point", "coordinates": [ -76.988657, 38.892185 ] } },
{ "type": "Feature", "properties": { "School_yea": "SY14-15", "School_nam": "Wheatley Education Campus", "School_sec": "DCPS", "School_gra": "PK3-8", "Facility_a": "1299 Neal Street NE", "MAR_latitu": 38.90411774, "MAR_longit": -76.98850077, "Ward__2022": "Ward 5", "DCPS_bound": "Dunbar", "Grade_rang": "PK3-5", "Enrollment": 340.0, "Permanent_": null }, "geometry": { "type": "Point", "coordinates": [ -76.988501, 38.904118 ] } },
{ "type": "Feature", "properties": { "School_yea": "SY14-15", "School_nam": "Brightwood Education Campus", "School_sec": "DCPS", "School_gra": "PK3-8", "Facility_a": "1300 Nicholson Street NW", "MAR_latitu": 38.96053573, "MAR_longit": -77.03068885, "Ward__2022": "Ward 4", "DCPS_bound": "Coolidge", "Grade_rang": "PK3-5", "Enrollment": 485.0, "Permanent_": null }, "geometry": { "type": "Point", "coordinates": [ -77.030689, 38.960536 ] } },
{ "type": "Feature", "properties": { "School_yea": "SY14-15", "School_nam": "Meridian PCS", "School_sec": "Public charter", "School_gra": "PK3-8", "Facility_a": "2120 13th Street NW", "MAR_latitu": 38.91874942, "MAR_longit": -77.02995351, "Ward__2022": "Ward 1", "DCPS_bound": "Cardozo", "Grade_rang": "PK3-5", "Enrollment": 508.0, "Permanent_": null }, "geometry": { "type": "Point", "coordinates": [ -77.029954, 38.918749 ] } },
{ "type": "Feature", "properties": { "School_yea": "SY14-15", "School_nam": "Powell Elementary School", "School_sec": "DCPS", "School_gra": "PK3-5", "Facility_a": "1350 Upshur Street NW", "MAR_latitu": 38.94162369, "MAR_longit": -77.03139783, "Ward__2022": "Ward 4", "DCPS_bound": "Roosevelt", "Grade_rang": "PK3-5", "Enrollment": 446.0, "Permanent_": null }, "geometry": { "type": "Point", "coordinates": [ -77.031398, 38.941624 ] } },
{ "type": "Feature", "properties": { "School_yea": "SY14-15", "School_nam": "KIPP DC PCS Connect Academy", "School_sec": "Public charter", "School_gra": "PK3-K", "Facility_a": "1375 Mount Olivet Road NE", "MAR_latitu": 38.90807397, "MAR_longit": -76.98113601, "Ward__2022": "Ward 5", "DCPS_bound": "Dunbar", "Grade_rang": "PK3-K", "Enrollment": 301.0, "Permanent_": null }, "geometry": { "type": "Point", "coordinates": [ -76.981136, 38.908074 ] } },
{ "type": "Feature", "properties": { "School_yea": "SY14-15", "School_nam": "KIPP DC PCS Spring Academy", "School_sec": "Public charter", "School_gra": "1", "Facility_a": "1375 Mount Olivet Road NE", "MAR_latitu": 38.90807397, "MAR_longit": -76.98113601, "Ward__2022": "Ward 5", "DCPS_bound": "Dunbar", "Grade_rang": "1", "Enrollment": 102.0, "Permanent_": null }, "geometry": { "type": "Point", "coordinates": [ -76.981136, 38.908074 ] } },
{ "type": "Feature", "properties": { "School_yea": "SY14-15", "School_nam": "KIPP DC PCS Northeast Academy", "School_sec": "Public charter", "School_gra": "5-6", "Facility_a": "1375 Mount Olivet Road NE", "MAR_latitu": 38.90807397, "MAR_longit": -76.98113601, "Ward__2022": "Ward 5", "DCPS_bound": "Dunbar", "Grade_rang": "5", "Enrollment": 54.0, "Permanent_": null }, "geometry": { "type": "Point", "coordinates": [ -76.981136, 38.908074 ] } },
{ "type": "Feature", "properties": { "School_yea": "SY14-15", "School_nam": "Shepherd Elementary School", "School_sec": "DCPS", "School_gra": "PK4-5", "Facility_a": "7800 14th Street NW", "MAR_latitu": 38.98460328, "MAR_longit": -77.03399523, "Ward__2022": "Ward 4", "DCPS_bound": "Jackson-Reed", "Grade_rang": "PK4-5", "Enrollment": 318.0, "Permanent_": null }, "geometry": { "type": "Point", "coordinates": [ -77.033995, 38.984603 ] } },
{ "type": "Feature", "properties": { "School_yea": "SY14-15", "School_nam": "Mary McLeod Bethune PCS [Slowe]", "School_sec": "Public charter", "School_gra": "PK3-8", "Facility_a": "1404 Jackson Street NE", "MAR_latitu": 38.92960592, "MAR_longit": -76.98686463, "Ward__2022": "Ward 5", "DCPS_bound": "Dunbar", "Grade_rang": "PK3-5", "Enrollment": 307.0, "Permanent_": null }, "geometry": { "type": "Point", "coordinates": [ -76.986865, 38.929606 ] } },
{ "type": "Feature", "properties": { "School_yea": "SY14-15", "School_nam": "Brookland Education Campus at Bunker Hill", "School_sec": "DCPS", "School_gra": "PK3-8", "Facility_a": "1401 Michigan Avenue NE", "MAR_latitu": 38.94201247, "MAR_longit": -76.98499564, "Ward__2022": "Ward 5", "DCPS_bound": "Dunbar", "Grade_rang": "PK3-5", "Enrollment": 155.0, "Permanent_": null }, "geometry": { "type": "Point", "coordinates": [ -76.984996, 38.942012 ] } },
{ "type": "Feature", "properties": { "School_yea": "SY14-15", "School_nam": "Achievement Preparatory PCS - Elementary", "School_sec": "Public charter", "School_gra": "K-3", "Facility_a": "1500 Mississippi Avenue SE", "MAR_latitu": 38.8416454, "MAR_longit": -76.98339857000001, "Ward__2022": "Ward 8", "DCPS_bound": "Ballou", "Grade_rang": "K-3", "Enrollment": 267.0, "Permanent_": null }, "geometry": { "type": "Point", "coordinates": [ -76.983399, 38.841645 ] } },
{ "type": "Feature", "properties": { "School_yea": "SY14-15", "School_nam": "Malcolm X Elementary School @ Green", "School_sec": "DCPS", "School_gra": "PK3-5", "Facility_a": "1500 Mississippi Avenue SE", "MAR_latitu": 38.8416454, "MAR_longit": -76.98339857000001, "Ward__2022": "Ward 8", "DCPS_bound": "Ballou", "Grade_rang": "PK3-5", "Enrollment": 244.0, "Permanent_": null }, "geometry": { "type": "Point", "coordinates": [ -76.983399, 38.841645 ] } },
{ "type": "Feature", "properties": { "School_yea": "SY14-15", "School_nam": "Moten Elementary School", "School_sec": "DCPS", "School_gra": "PK3-5", "Facility_a": "1565 Morris Road SE", "MAR_latitu": 38.856656, "MAR_longit": -76.98294368000001, "Ward__2022": "Ward 8", "DCPS_bound": "Anacostia", "Grade_rang": "PK3-5", "Enrollment": 395.0, "Permanent_": null }, "geometry": { "type": "Point", "coordinates": [ -76.982944, 38.856656 ] } },
{ "type": "Feature", "properties": { "School_yea": "SY14-15", "School_nam": "Ross Elementary School", "School_sec": "DCPS", "School_gra": "PK3-5", "Facility_a": "1730 R Street NW", "MAR_latitu": 38.91239115, "MAR_longit": -77.03966214, "Ward__2022": "Ward 2", "DCPS_bound": "Cardozo", "Grade_rang": "PK3-5", "Enrollment": 166.0, "Permanent_": null }, "geometry": { "type": "Point", "coordinates": [ -77.039662, 38.912391 ] } },
{ "type": "Feature", "properties": { "School_yea": "SY14-15", "School_nam": "Bancroft Elementary School", "School_sec": "DCPS", "School_gra": "PK3-5", "Facility_a": "1755 Newton Street NW", "MAR_latitu": 38.93431836, "MAR_longit": -77.04055344, "Ward__2022": "Ward 1", "DCPS_bound": "Jackson-Reed", "Grade_rang": "PK3-5", "Enrollment": 508.0, "Permanent_": null }, "geometry": { "type": "Point", "coordinates": [ -77.040553, 38.934318 ] } },
{ "type": "Feature", "properties": { "School_yea": "SY14-15", "School_nam": "Briya PCS", "School_sec": "Public charter", "School_gra": "PK3-PK4; Adult", "Facility_a": "1755 Newton Street NW", "MAR_latitu": 38.93431836, "MAR_longit": -77.04055344, "Ward__2022": "Ward 1", "DCPS_bound": "Jackson-Reed", "Grade_rang": "PK3-PK4", "Enrollment": 9.5, "Permanent_": null }, "geometry": { "type": "Point", "coordinates": [ -77.040553, 38.934318 ] } },
{ "type": "Feature", "properties": { "School_yea": "SY14-15", "School_nam": "Burroughs Education Campus", "School_sec": "DCPS", "School_gra": "PK3-8", "Facility_a": "1820 Monroe Street NE", "MAR_latitu": 38.93350266, "MAR_longit": -76.97845637, "Ward__2022": "Ward 5", "DCPS_bound": "Dunbar", "Grade_rang": "PK3-5", "Enrollment": 242.0, "Permanent_": null }, "geometry": { "type": "Point", "coordinates": [ -76.978456, 38.933503 ] } },
{ "type": "Feature", "properties": { "School_yea": "SY14-15", "School_nam": "Cleveland Elementary School", "School_sec": "DCPS", "School_gra": "PK3-5", "Facility_a": "1825 8th Street NW", "MAR_latitu": 38.91514529, "MAR_longit": -77.02270718, "Ward__2022": "Ward 1", "DCPS_bound": "Cardozo", "Grade_rang": "PK3-5", "Enrollment": 308.0, "Permanent_": null }, "geometry": { "type": "Point", "coordinates": [ -77.022707, 38.915145 ] } },
{ "type": "Feature", "properties": { "School_yea": "SY14-15", "School_nam": "Ketcham Elementary School", "School_sec": "DCPS", "School_gra": "PK3-5", "Facility_a": "1919 15th Street SE", "MAR_latitu": 38.86604269, "MAR_longit": -76.98362116, "Ward__2022": "Ward 8", "DCPS_bound": "Anacostia", "Grade_rang": "PK3-5", "Enrollment": 309.0, "Permanent_": null }, "geometry": { "type": "Point", "coordinates": [ -76.983621, 38.866043 ] } },
{ "type": "Feature", "properties": { "School_yea": "SY14-15", "School_nam": "Oyster Adams Bilingual School (Adams)", "School_sec": "DCPS", "School_gra": "PK4-8", "Facility_a": "2020 19th Street NW", "MAR_latitu": 38.91730954, "MAR_longit": -77.04437725, "Ward__2022": "Ward 1", "DCPS_bound": "Jackson-Reed", "Grade_rang": "4-5", "Enrollment": 137.0, "Permanent_": null }, "geometry": { "type": "Point", "coordinates": [ -77.044377, 38.91731 ] } },
{ "type": "Feature", "properties": { "School_yea": "SY14-15", "School_nam": "Nalle Elementary School", "School_sec": "DCPS", "School_gra": "PK3-5", "Facility_a": "219 50th Street SE", "MAR_latitu": 38.88595442, "MAR_longit": -76.93079651, "Ward__2022": "Ward 7", "DCPS_bound": "Woodson", "Grade_rang": "PK3-5", "Enrollment": 384.0, "Permanent_": null }, "geometry": { "type": "Point", "coordinates": [ -76.930797, 38.885954 ] } },
{ "type": "Feature", "properties": { "School_yea": "SY14-15", "School_nam": "Marie Reed Elementary School", "School_sec": "DCPS", "School_gra": "PK3-5", "Facility_a": "2201 18th Street NW", "MAR_latitu": 38.91911214, "MAR_longit": -77.04082224, "Ward__2022": "Ward 1", "DCPS_bound": "Cardozo", "Grade_rang": "PK3-5", "Enrollment": 393.0, "Permanent_": null }, "geometry": { "type": "Point", "coordinates": [ -77.040822, 38.919112 ] } },
{ "type": "Feature", "properties": { "School_yea": "SY14-15", "School_nam": "Savoy Elementary School", "School_sec": "DCPS", "School_gra": "PK3-5", "Facility_a": "2400 Shannon Place SE", "MAR_latitu": 38.86285199, "MAR_longit": -76.99360426, "Ward__2022": "Ward 8", "DCPS_bound": "Anacostia", "Grade_rang": "PK3-5", "Enrollment": 408.0, "Permanent_": null }, "geometry": { "type": "Point", "coordinates": [ -76.993604, 38.862852 ] } },
{ "type": "Feature", "properties": { "School_yea": "SY14-15", "School_nam": "School Without Walls @ Francis-Stevens", "School_sec": "DCPS", "School_gra": "PK3-8", "Facility_a": "2425 N Street NW", "MAR_latitu": 38.9074695, "MAR_longit": -77.052321, "Ward__2022": "Ward 2", "DCPS_bound": "Cardozo", "Grade_rang": "PK3-5", "Enrollment": 273.0, "Permanent_": null }, "geometry": { "type": "Point", "coordinates": [ -77.052321, 38.90747 ] } },
{ "type": "Feature", "properties": { "School_yea": "SY14-15", "School_nam": "Garfield Elementary School", "School_sec": "DCPS", "School_gra": "PK3-5", "Facility_a": "2435 Alabama Avenue SE", "MAR_latitu": 38.85173338, "MAR_longit": -76.97080478, "Ward__2022": "Ward 8", "DCPS_bound": "Ballou", "Grade_rang": "PK3-5", "Enrollment": 284.0, "Permanent_": null }, "geometry": { "type": "Point", "coordinates": [ -76.970805, 38.851733 ] } },
{ "type": "Feature", "properties": { "School_yea": "SY14-15", "School_nam": "Browne Education Campus", "School_sec": "DCPS", "School_gra": "PK3-8", "Facility_a": "850 26th Street NE", "MAR_latitu": 38.90259888, "MAR_longit": -76.97066706, "Ward__2022": "Ward 5", "DCPS_bound": "Eastern", "Grade_rang": "PK3-5", "Enrollment": 249.0, "Permanent_": null }, "geometry": { "type": "Point", "coordinates": [ -76.970667, 38.902599 ] } },
{ "type": "Feature", "properties": { "School_yea": "SY14-15", "School_nam": "H D Cooke Elementary School", "School_sec": "DCPS", "School_gra": "PK3-5", "Facility_a": "2525 17th Street NW", "MAR_latitu": 38.92394309, "MAR_longit": -77.03881058, "Ward__2022": "Ward 1", "DCPS_bound": "Cardozo", "Grade_rang": "PK3-5", "Enrollment": 400.0, "Permanent_": null }, "geometry": { "type": "Point", "coordinates": [ -77.038811, 38.923943 ] } },
{ "type": "Feature", "properties": { "School_yea": "SY14-15", "School_nam": "KIPP DC PCS Discover Academy", "School_sec": "Public charter", "School_gra": "PK3-K", "Facility_a": "2600 Douglass Road SE", "MAR_latitu": 38.85662232, "MAR_longit": -76.98804884, "Ward__2022": "Ward 8", "DCPS_bound": "Anacostia", "Grade_rang": "PK3-K", "Enrollment": 330.0, "Permanent_": null }, "geometry": { "type": "Point", "coordinates": [ -76.988049, 38.856622 ] } },
{ "type": "Feature", "properties": { "School_yea": "SY14-15", "School_nam": "KIPP DC PCS Heights Academy", "School_sec": "Public charter", "School_gra": "1-4", "Facility_a": "2600 Douglass Road SE", "MAR_latitu": 38.85662232, "MAR_longit": -76.98804884, "Ward__2022": "Ward 8", "DCPS_bound": "Anacostia", "Grade_rang": "1-4", "Enrollment": 415.0, "Permanent_": null }, "geometry": { "type": "Point", "coordinates": [ -76.988049, 38.856622 ] } },
{ "type": "Feature", "properties": { "School_yea": "SY14-15", "School_nam": "KIPP DC PCS AIM Academy", "School_sec": "Public charter", "School_gra": "5-8", "Facility_a": "2600 Douglass Road SE", "MAR_latitu": 38.85662232, "MAR_longit": -76.98804884, "Ward__2022": "Ward 8", "DCPS_bound": "Anacostia", "Grade_rang": "5", "Enrollment": 69.0, "Permanent_": null }, "geometry": { "type": "Point", "coordinates": [ -76.988049, 38.856622 ] } },
{ "type": "Feature", "properties": { "School_yea": "SY14-15", "School_nam": "Stanton Elementary School", "School_sec": "DCPS", "School_gra": "PK3-5", "Facility_a": "2701 Naylor Road SE", "MAR_latitu": 38.85927211, "MAR_longit": -76.96849023, "Ward__2022": "Ward 8", "DCPS_bound": "Anacostia", "Grade_rang": "PK3-5", "Enrollment": 578.0, "Permanent_": null }, "geometry": { "type": "Point", "coordinates": [ -76.96849, 38.859272 ] } },
{ "type": "Feature", "properties": { "School_yea": "SY14-15", "School_nam": "Noyes Education Campus", "School_sec": "DCPS", "School_gra": "PK3-8", "Facility_a": "2725 10th Street NE", "MAR_latitu": 38.92517798, "MAR_longit": -76.99184288, "Ward__2022": "Ward 5", "DCPS_bound": "Dunbar", "Grade_rang": "PK3-5", "Enrollment": 218.0, "Permanent_": null }, "geometry": { "type": "Point", "coordinates": [ -76.991843, 38.925178 ] } },
{ "type": "Feature", "properties": { "School_yea": "SY14-15", "School_nam": "Oyster Adams Bilingual School (Oyster)", "School_sec": "DCPS", "School_gra": "PK4-8", "Facility_a": "2801 Calvert Street NW", "MAR_latitu": 38.92359583, "MAR_longit": -77.05720337, "Ward__2022": "Ward 3", "DCPS_bound": "Jackson-Reed", "Grade_rang": "PK4-3", "Enrollment": 336.0, "Permanent_": null }, "geometry": { "type": "Point", "coordinates": [ -77.057203, 38.923596 ] } },
{ "type": "Feature", "properties": { "School_yea": "SY14-15", "School_nam": "Mundo Verde Bilingual PCS", "School_sec": "Public charter", "School_gra": "PK3-3", "Facility_a": "30 P Street NW", "MAR_latitu": 38.90940503, "MAR_longit": -77.01031056, "Ward__2022": "Ward 5", "DCPS_bound": "Dunbar", "Grade_rang": "PK3-3", "Enrollment": 404.0, "Permanent_": null }, "geometry": { "type": "Point", "coordinates": [ -77.010311, 38.909405 ] } },
{ "type": "Feature", "properties": { "School_yea": "SY14-15", "School_nam": "C W Harris Elementary School", "School_sec": "DCPS", "School_gra": "PK3-5", "Facility_a": "301 53rd Street SE", "MAR_latitu": 38.88359883, "MAR_longit": -76.9261155, "Ward__2022": "Ward 7", "DCPS_bound": "Woodson", "Grade_rang": "PK3-5", "Enrollment": 291.0, "Permanent_": null }, "geometry": { "type": "Point", "coordinates": [ -76.926115, 38.883599 ] } },
{ "type": "Feature", "properties": { "School_yea": "SY14-15", "School_nam": "Capitol Hill Montessori School @ Logan", "School_sec": "DCPS", "School_gra": "PK3-7", "Facility_a": "215 G Street NE", "MAR_latitu": 38.89853031, "MAR_longit": -77.00256647, "Ward__2022": "Ward 6", "DCPS_bound": "Eastern", "Grade_rang": "PK3-5", "Enrollment": 293.0, "Permanent_": null }, "geometry": { "type": "Point", "coordinates": [ -77.002566, 38.89853 ] } },
{ "type": "Feature", "properties": { "School_yea": "SY14-15", "School_nam": "Payne Elementary School", "School_sec": "DCPS", "School_gra": "PK3-5", "Facility_a": "1445 C Street SE", "MAR_latitu": 38.88517068, "MAR_longit": -76.98498373, "Ward__2022": "Ward 6", "DCPS_bound": "Eastern", "Grade_rang": "PK3-5", "Enrollment": 277.0, "Permanent_": null }, "geometry": { "type": "Point", "coordinates": [ -76.984984, 38.885171 ] } },
{ "type": "Feature", "properties": { "School_yea": "SY14-15", "School_nam": "Tubman Elementary School", "School_sec": "DCPS", "School_gra": "PK3-5", "Facility_a": "3101 13th Street NW", "MAR_latitu": 38.92919857, "MAR_longit": -77.0294433, "Ward__2022": "Ward 1", "DCPS_bound": "Cardozo", "Grade_rang": "PK3-5", "Enrollment": 498.0, "Permanent_": null }, "geometry": { "type": "Point", "coordinates": [ -77.029443, 38.929199 ] } },
{ "type": "Feature", "properties": { "School_yea": "SY14-15", "School_nam": "King, M L Elementary School", "School_sec": "DCPS", "School_gra": "PK3-5", "Facility_a": "3200 6th Street SE", "MAR_latitu": 38.84244319, "MAR_longit": -76.99823899, "Ward__2022": "Ward 8", "DCPS_bound": "Ballou", "Grade_rang": "PK3-5", "Enrollment": 372.0, "Permanent_": null }, "geometry": { "type": "Point", "coordinates": [ -76.998239, 38.842443 ] } },
{ "type": "Feature", "properties": { "School_yea": "SY14-15", "School_nam": "Hyde-Addison Elementary School", "School_sec": "DCPS", "School_gra": "PK4-5", "Facility_a": "3219 O Street NW", "MAR_latitu": 38.90801957, "MAR_longit": -77.06453782, "Ward__2022": "Ward 2", "DCPS_bound": "MacArthur", "Grade_rang": "PK4-5", "Enrollment": 305.0, "Permanent_": null }, "geometry": { "type": "Point", "coordinates": [ -77.064538, 38.90802 ] } },
{ "type": "Feature", "properties": { "School_yea": "SY14-15", "School_nam": "Turner Elementary School", "School_sec": "DCPS", "School_gra": "PK3-5", "Facility_a": "3264 Stanton Road SE", "MAR_latitu": 38.84763644, "MAR_longit": -76.98031323, "Ward__2022": "Ward 8", "DCPS_bound": "Ballou", "Grade_rang": "PK3-5", "Enrollment": 392.0, "Permanent_": null }, "geometry": { "type": "Point", "coordinates": [ -76.980313, 38.847636 ] } },
{ "type": "Feature", "properties": { "School_yea": "SY14-15", "School_nam": "Brent Elementary School", "School_sec": "DCPS", "School_gra": "PK3-5", "Facility_a": "301 North Carolina Avenue SE", "MAR_latitu": 38.88480121, "MAR_longit": -77.00145985, "Ward__2022": "Ward 6", "DCPS_bound": "Eastern", "Grade_rang": "PK3-5", "Enrollment": 368.0, "Permanent_": null }, "geometry": { "type": "Point", "coordinates": [ -77.00146, 38.884801 ] } },
{ "type": "Feature", "properties": { "School_yea": "SY14-15", "School_nam": "Eaton Elementary School", "School_sec": "DCPS", "School_gra": "PK4-5", "Facility_a": "3301 Lowell Street NW", "MAR_latitu": 38.93272707, "MAR_longit": -77.06582114, "Ward__2022": "Ward 3", "DCPS_bound": "MacArthur", "Grade_rang": "PK4-5", "Enrollment": 475.0, "Permanent_": null }, "geometry": { "type": "Point", "coordinates": [ -77.065821, 38.932727 ] } },
{ "type": "Feature", "properties": { "School_yea": "SY14-15", "School_nam": "Kimball Elementary School", "School_sec": "DCPS", "School_gra": "PK3-5", "Facility_a": "3375 Minnesota Avenue SE", "MAR_latitu": 38.88308309, "MAR_longit": -76.95757271, "Ward__2022": "Ward 7", "DCPS_bound": "Anacostia", "Grade_rang": "PK3-5", "Enrollment": 348.0, "Permanent_": null }, "geometry": { "type": "Point", "coordinates": [ -76.957573, 38.883083 ] } },
{ "type": "Feature", "properties": { "School_yea": "SY14-15", "School_nam": "Eagle Academy PCS - The Eagle Center at McGogney", "School_sec": "Public charter", "School_gra": "PK3-3", "Facility_a": "3400 Wheeler Road SE", "MAR_latitu": 38.84026907, "MAR_longit": -76.9930375, "Ward__2022": "Ward 8", "DCPS_bound": "Ballou", "Grade_rang": "PK3-3", "Enrollment": 774.0, "Permanent_": null }, "geometry": { "type": "Point", "coordinates": [ -76.993037, 38.840269 ] } },
{ "type": "Feature", "properties": { "School_yea": "SY14-15", "School_nam": "Bruce-Monroe Elementary School @ Park View", "School_sec": "DCPS", "School_gra": "PK3-5", "Facility_a": "3560 Warder Street NW", "MAR_latitu": 38.9344141, "MAR_longit": -77.02118567, "Ward__2022": "Ward 1", "DCPS_bound": "Roosevelt", "Grade_rang": "PK3-5", "Enrollment": 465.0, "Permanent_": null }, "geometry": { "type": "Point", "coordinates": [ -77.021186, 38.934414 ] } },
{ "type": "Feature", "properties": { "School_yea": "SY14-15", "School_nam": "Beers Elementary School", "School_sec": "DCPS", "School_gra": "PK3-5", "Facility_a": "3600 Alabama Avenue SE", "MAR_latitu": 38.86434984, "MAR_longit": -76.95560475000001, "Ward__2022": "Ward 7", "DCPS_bound": "Anacostia", "Grade_rang": "PK3-5", "Enrollment": 438.0, "Permanent_": null }, "geometry": { "type": "Point", "coordinates": [ -76.955605, 38.86435 ] } },
{ "type": "Feature", "properties": { "School_yea": "SY14-15", "School_nam": "Hearst Elementary School", "School_sec": "DCPS", "School_gra": "PK4-5", "Facility_a": "3950 37th Street NW", "MAR_latitu": 38.94072265, "MAR_longit": -77.07195522000001, "Ward__2022": "Ward 3", "DCPS_bound": "Jackson-Reed", "Grade_rang": "PK4-5", "Enrollment": 291.0, "Permanent_": null }, "geometry": { "type": "Point", "coordinates": [ -77.071955, 38.940723 ] } },
{ "type": "Feature", "properties": { "School_yea": "SY14-15", "School_nam": "Amidon Bowen Elementary School", "School_sec": "DCPS", "School_gra": "PK3-5", "Facility_a": "401 I Street SW", "MAR_latitu": 38.8795154, "MAR_longit": -77.0181253, "Ward__2022": "Ward 6", "DCPS_bound": "Eastern", "Grade_rang": "PK3-5", "Enrollment": 345.0, "Permanent_": null }, "geometry": { "type": "Point", "coordinates": [ -77.018125, 38.879515 ] } },
{ "type": "Feature", "properties": { "School_yea": "SY14-15", "School_nam": "Simon Elementary School", "School_sec": "DCPS", "School_gra": "PK3-5", "Facility_a": "401 Mississippi Avenue SE", "MAR_latitu": 38.83598054, "MAR_longit": -77.000195, "Ward__2022": "Ward 8", "DCPS_bound": "Ballou", "Grade_rang": "PK3-5", "Enrollment": 293.0, "Permanent_": null }, "geometry": { "type": "Point", "coordinates": [ -77.000195, 38.835981 ] } },
{ "type": "Feature", "properties": { "School_yea": "SY14-15", "School_nam": "Stoddert Elementary School", "School_sec": "DCPS", "School_gra": "PK4-5", "Facility_a": "4001 Calvert Street NW", "MAR_latitu": 38.92304465, "MAR_longit": -77.0790738, "Ward__2022": "Ward 3", "DCPS_bound": "MacArthur", "Grade_rang": "PK4-5", "Enrollment": 418.0, "Permanent_": null }, "geometry": { "type": "Point", "coordinates": [ -77.079074, 38.923045 ] } },
{ "type": "Feature", "properties": { "School_yea": "SY14-15", "School_nam": "Janney Elementary School", "School_sec": "DCPS", "School_gra": "PK4-5", "Facility_a": "4130 Albemarle Street NW", "MAR_latitu": 38.94755042, "MAR_longit": -77.08099483, "Ward__2022": "Ward 3", "DCPS_bound": "Jackson-Reed", "Grade_rang": "PK4-5", "Enrollment": 693.0, "Permanent_": null }, "geometry": { "type": "Point", "coordinates": [ -77.080995, 38.94755 ] } },
{ "type": "Feature", "properties": { "School_yea": "SY14-15", "School_nam": "Watkins Elementary School (Capitol Hill Cluster)", "School_sec": "DCPS", "School_gra": "1-5", "Facility_a": "420 12th Street SE", "MAR_latitu": 38.88346701, "MAR_longit": -76.98999677, "Ward__2022": "Ward 6", "DCPS_bound": "Eastern", "Grade_rang": "1-5", "Enrollment": 500.0, "Permanent_": null }, "geometry": { "type": "Point", "coordinates": [ -76.989997, 38.883467 ] } },
{ "type": "Feature", "properties": { "School_yea": "SY14-15", "School_nam": "Leckie Elementary School", "School_sec": "DCPS", "School_gra": "PK3-5", "Facility_a": "4201 Martin Luther King Jr Avenue SW", "MAR_latitu": 38.82819678, "MAR_longit": -77.01289191, "Ward__2022": "Ward 8", "DCPS_bound": "Ballou", "Grade_rang": "PK3-5", "Enrollment": 478.0, "Permanent_": null }, "geometry": { "type": "Point", "coordinates": [ -77.012892, 38.828197 ] } },
{ "type": "Feature", "properties": { "School_yea": "SY14-15", "School_nam": "Peabody Elementary School (Capitol Hill Cluster)", "School_sec": "DCPS", "School_gra": "PK3-K", "Facility_a": "425 C Street NE", "MAR_latitu": 38.89289632, "MAR_longit": -76.99985799, "Ward__2022": "Ward 6", "DCPS_bound": "Eastern", "Grade_rang": "PK3-K", "Enrollment": 227.0, "Permanent_": null }, "geometry": { "type": "Point", "coordinates": [ -76.999858, 38.892896 ] } },